ESTADO,MUNICIPIO,LATITUD,LONGITUD,PEA
AGUASCALIENTES,Asientos,22.23831694,-102.089275,2086
AGUASCALIENTES,Calvillo,21.84690722,-102.7187506,9653
AGUASCALIENTES,Cosío,22.36640861,-102.3000442,2679
AGUASCALIENTES,Pabellón de Arteaga,22.14920167,-102.2765417,15404
AGUASCALIENTES,Rincón de Romos,22.22923306,-102.3230686,15294
AGUASCALIENTES,San José de Gracia,22.15021639,-102.4156336,2407
AGUASCALIENTES,Tepezalá,22.22422778,-102.1669714,1981
AGUASCALIENTES,El Llano,21.91886917,-101.9653072,2503
AGUASCALIENTES,San Francisco de los Romo,22.07239306,-102.2726783,8931
BAJA CALIFORNIA,San Quintín,30.55648528,-115.9390614,2610
BAJA CALIFORNIA SUR,Comondú,25.03463556,-111.6733394,21620
BAJA CALIFORNIA SUR,Mulegé,27.33686833,-112.2682747,7491
BAJA CALIFORNIA SUR,Loreto,26.01277778,-111.3433333,8221
CAMPECHE,Calkiní,20.37122611,-90.05073944,7827
CAMPECHE,Champotón,19.35621861,-90.72389111,16983
CAMPECHE,Hecelchakán,20.17696611,-90.13451722,5678
CAMPECHE,Hopelchén,19.74554806,-89.84504361,3831
CAMPECHE,Palizada,18.25359833,-92.09090167,1634
CAMPECHE,Tenabo,20.03967694,-90.22576333,4378
CAMPECHE,Escárcega,18.60431472,-90.73200083,14749
CAMPECHE,Calakmul,18.50537083,-89.39727556,2701
CAMPECHE,Candelaria,18.18345056,-91.04629361,5483
CAMPECHE,Seybaplaya,19.63919694,-90.68830111,4351
COAHUILA,Allende,28.34722222,-100.8541667,9102
COAHUILA,Arteaga,25.45062056,-100.8496225,7806
COAHUILA,Castaños,26.78527778,-101.4305556,10920
COAHUILA,Cuatro Ciénegas,26.98686361,-102.0671011,4409
COAHUILA,Francisco I. Madero,25.775,-103.2730556,15299
COAHUILA,General Cepeda,25.3799075,-101.4792917,2319
COAHUILA,Matamoros,25.52813611,-103.2303836,27948
COAHUILA,Morelos,28.41010444,-100.8866314,2791
COAHUILA,Múzquiz,27.87754972,-101.5165178,16475
COAHUILA,Nadadores,27.02903056,-101.5920233,1833
COAHUILA,Nava,28.42187472,-100.7675536,10744
COAHUILA,Ocampo,27.311215,-102.3974047,1352
COAHUILA,Parras,25.43738056,-102.1841689,16898
COAHUILA,Sabinas,27.84888833,-101.1199892,27516
COAHUILA,San Buenaventura,27.06025722,-101.5500286,9978
COAHUILA,San Pedro,25.75777778,-102.9831569,21848
COAHUILA,Viesca,25.34360528,-102.8063503,1251
COAHUILA,Villa Unión,28.22049778,-100.725155,2063
COAHUILA,Zaragoza,28.48704306,-100.9176217,4671
COLIMA,Armería,18.93707278,-103.9649972,8335
COLIMA,Comala,19.32319861,-103.7588011,5277
COLIMA,Coquimatlán,19.20141,-103.8109169,7722
COLIMA,Cuauhtémoc,19.32877444,-103.6018606,4957
COLIMA,Ixtlahuacán,19.00118361,-103.7385933,1489
COLIMA,Minatitlán,19.38611,-104.0496369,2962
CHIAPAS,Acacoyagua,15.34096528,-92.67461722,3655
CHIAPAS,Acala,16.55167361,-92.80750833,6761
CHIAPAS,Acapetahua,15.28283778,-92.68913194,2900
CHIAPAS,Altamirano,16.73592028,-92.03859361,4957
CHIAPAS,Amatán,17.37284833,-92.81912306,1468
CHIAPAS,Amatenango del Valle,16.52850139,-92.43549056,2711
CHIAPAS,Angel Albino Corzo,15.87264444,-92.72507972,5561
CHIAPAS,Arriaga,16.236065,-93.89947333,13408
CHIAPAS,Berriozábal,16.80032083,-93.27327139,17538
CHIAPAS,Bochil,16.99638333,-92.89021889,6170
CHIAPAS,El Bosque,17.06221028,-92.72140889,1554
CHIAPAS,Cacahoatán,14.98978861,-92.16811028,8405
CHIAPAS,Catazajá,17.72832139,-92.01636611,1453
CHIAPAS,Cintalapa,16.69868222,-93.72042806,22397
CHIAPAS,Coapilla,17.13079139,-93.15902194,1605
CHIAPAS,La Concordia,16.11671583,-92.68793389,3947
CHIAPAS,Copainalá,17.09361111,-93.21055556,3187
CHIAPAS,Chamula,16.7875,-92.68916667,1974
CHIAPAS,Chanal,16.66006194,-92.25994222,2120
CHIAPAS,Chapultenango,17.34040056,-93.13007833,1184
CHIAPAS,Chenalhó,16.89427694,-92.62614806,1328
CHIAPAS,Chiapa de Corzo,16.70795806,-93.01595917,26492
CHIAPAS,Chiapilla,16.57049306,-92.720025,1798
CHIAPAS,Chicoasén,16.967255,-93.105235,1333
CHIAPAS,Chicomuselo,15.74493611,-92.28328722,3273
CHIAPAS,Chilón,17.10549139,-92.27152833,4191
CHIAPAS,Escuintla,15.31926944,-92.65855833,4826
CHIAPAS,Frontera Comalapa,15.66016389,-92.14105,9718
CHIAPAS,Frontera Hidalgo,14.7778375,-92.17598333,1970
CHIAPAS,Huehuetán,15.01851972,-92.38418083,3747
CHIAPAS,Huitiupán,17.17323167,-92.68593194,1654
CHIAPAS,Huixtla,15.13828861,-92.46581778,15387
CHIAPAS,La Independencia,16.25415167,-92.02384111,1936
CHIAPAS,Ixhuatán,17.29327083,-93.00838194,1513
CHIAPAS,Ixtacomitán,17.430795,-93.0965725,2560
CHIAPAS,Ixtapa,16.80352528,-92.90590278,2846
CHIAPAS,Jiquipilas,16.66772139,-93.65047528,5548
CHIAPAS,Jitotol,17.0679675,-92.86233611,2645
CHIAPAS,Juárez,17.60815111,-93.19333083,3772
CHIAPAS,Larráinzar,16.88444611,-92.71325833,1323
CHIAPAS,La Libertad,17.69013639,-91.71906222,1165
CHIAPAS,Mapastepec,15.44113417,-92.89160583,9105
CHIAPAS,Las Margaritas,16.31594722,-91.98156833,11050
CHIAPAS,Mazatán,14.86302528,-92.44947083,3771
CHIAPAS,Metapa,14.83731417,-92.19094472,1127
CHIAPAS,Motozintla,15.36316722,-92.24774444,11887
CHIAPAS,Nicolás Ruíz,16.43707306,-92.58534722,1333
CHIAPAS,Ocosingo,16.90803833,-92.09582667,22227
CHIAPAS,Ocotepec,17.22502917,-93.16440528,1553
CHIAPAS,Ocozocoautla de Espinosa,16.76146194,-93.3756525,21494
CHIAPAS,Ostuacán,17.40559111,-93.33713639,1432
CHIAPAS,Oxchuc,16.78611944,-92.33491667,2946
CHIAPAS,Palenque,17.50913333,-91.98103333,26180
CHIAPAS,Pantelhó,17.00665861,-92.46957972,2710
CHIAPAS,Pichucalco,17.50855083,-93.1177675,7322
CHIAPAS,Pijijiapan,15.69167361,-93.20931694,9142
CHIAPAS,Villa Comaltitlán,15.2119375,-92.57602417,4010
CHIAPAS,Pueblo Nuevo Solistahuacán,17.15756806,-92.89732222,5272
CHIAPAS,Rayón,17.20050333,-93.01121722,3447
CHIAPAS,Reforma,17.86581194,-93.14710806,13069
CHIAPAS,Las Rosas,16.36413194,-92.36958056,10327
CHIAPAS,Sabanilla,17.28348417,-92.55172,1040
CHIAPAS,Salto de Agua,17.55702083,-92.33342194,3020
CHIAPAS,San Fernando,16.87171194,-93.20628472,5439
CHIAPAS,Siltepec,15.557185,-92.32286,1536
CHIAPAS,Simojovel,17.14082611,-92.71520833,6797
CHIAPAS,Socoltenango,16.24294944,-92.35031583,2322
CHIAPAS,Soyaló,16.8909925,-92.92529,1782
CHIAPAS,Suchiapa,16.62195806,-93.10479389,8369
CHIAPAS,Suchiate,14.67945222,-92.15094222,8537
CHIAPAS,Tapilula,17.24840278,-93.01625833,3616
CHIAPAS,Tecpatán,17.13699528,-93.31146778,2482
CHIAPAS,Teopisca,16.54151389,-92.47259722,9618
CHIAPAS,Tila,17.30063472,-92.42586472,1286
CHIAPAS,Tonalá,16.09135556,-93.75178333,18767
CHIAPAS,Totolapa,16.5447325,-92.68037611,1686
CHIAPAS,La Trinitaria,16.11905944,-92.05046944,5892
CHIAPAS,Tumbalá,17.27846333,-92.31598778,1264
CHIAPAS,Tuxtla Chico,14.94018972,-92.16896972,3453
CHIAPAS,Tuzantán,15.14606333,-92.42162056,1656
CHIAPAS,Tzimol,16.18423139,-92.18793667,2891
CHIAPAS,Unión Juárez,15.06070722,-92.08195778,1219
CHIAPAS,Venustiano Carranza,16.33961722,-92.56513528,7919
CHIAPAS,Villa Corzo,16.18475111,-93.26768361,5267
CHIAPAS,Villaflores,16.23548583,-93.2677075,18942
CHIAPAS,Yajalón,17.17391,-92.33394417,8484
CHIAPAS,San Lucas,16.61163667,-92.71934222,2258
CHIAPAS,Zinacantán,16.76011889,-92.72358056,2314
CHIAPAS,San Juan Cancuc,16.89224333,-92.3719525,1749
CHIAPAS,Benemérito de las Américas,16.51582806,-90.65330194,4351
CHIAPAS,Marqués de Comillas,16.33313333,-90.76528333,1071
CHIAPAS,Montecristo de Guerrero,15.6939175,-92.61926,1224
CHIAPAS,San Andrés Duraznal,17.1319975,-92.8049875,1015
CHIAPAS,Rincón Chamula San Pedro,17.20947083,-92.93757028,2356
CHIAPAS,El Parral,16.36622778,-93.00671111,5418
CHIAPAS,Emiliano Zapata,16.53917167,-92.89672444,2524
CHIAPAS,Mezcalapa,17.1892225,-93.60477333,3324
CHIHUAHUA,Ahumada,30.61773389,-106.5124153,5075
CHIHUAHUA,Aldama,28.83838056,-105.9112925,10899
CHIHUAHUA,Allende,26.93942583,-105.3950767,2193
CHIHUAHUA,Aquiles Serdán,28.59450333,-105.8874739,9855
CHIHUAHUA,Ascensión,31.09217611,-107.9959494,7093
CHIHUAHUA,Bachíniva,28.76473167,-107.2543622,1009
CHIHUAHUA,Balleza,26.9541075,-106.3469233,1034
CHIHUAHUA,Buenaventura,29.84340861,-107.4713142,3900
CHIHUAHUA,Camargo,27.6949625,-105.1716203,20678
CHIHUAHUA,Casas Grandes,30.37570361,-107.9488053,3029
CHIHUAHUA,Gómez Farías,29.35701917,-107.738655,1957
CHIHUAHUA,Guachochi,26.8191525,-107.0693617,8359
CHIHUAHUA,Guadalupe y Calvo,26.09451583,-106.9643694,2938
CHIHUAHUA,Guazapares,27.27638167,-108.2799558,1093
CHIHUAHUA,Guerrero,28.5481925,-107.4869236,3685
CHIHUAHUA,Ignacio Zaragoza,29.64321222,-107.7641947,1368
CHIHUAHUA,Janos,30.8872575,-108.1898497,1480
CHIHUAHUA,Jiménez,27.13054917,-104.9229767,15664
CHIHUAHUA,Madera,29.19,-108.1413889,6437
CHIHUAHUA,Matamoros,26.76387694,-105.58333,1028
CHIHUAHUA,Meoqui,28.26779667,-105.4802911,11265
CHIHUAHUA,Nuevo Casas Grandes,30.41398556,-107.9121031,29868
CHIHUAHUA,Ojinaga,29.56450056,-104.4156647,10167
CHIHUAHUA,Rosales,28.18694444,-105.5544444,2813
CHIHUAHUA,San Francisco del Oro,26.85899444,-105.8500803,1652
CHIHUAHUA,Santa Bárbara,26.8021,-105.8180997,3798
CHIHUAHUA,Saucillo,28.03267444,-105.2880322,4842
CHIHUAHUA,Valle de Zaragoza,27.45713167,-105.8109942,1013
CDMX,Milpa Alta,19.19124944,-99.02337194,10567
DURANGO,Canatlán,24.52726333,-104.7783736,5403
DURANGO,Cuencamé,24.87093944,-103.6984619,5350
DURANGO,Guadalupe Victoria,24.44643333,-104.12366,8634
DURANGO,Guanaceví,25.93166194,-105.9544319,1660
DURANGO,Mapimí,25.83332361,-103.8481936,2484
DURANGO,Nazas,25.22777667,-104.1138031,1577
DURANGO,Nombre de Dios,23.84821083,-104.244705,2701
DURANGO,El Oro,25.94932389,-105.3648656,3012
DURANGO,Pánuco de Coronado,24.40102444,-104.3192644,2429
DURANGO,Peñón Blanco,24.79250861,-104.0342667,2223
DURANGO,Poanas,23.97509222,-104.0441361,5174
DURANGO,Pueblo Nuevo,23.77815056,-105.3601919,10910
DURANGO,Rodeo,25.18071861,-104.5604444,2125
DURANGO,San Dimas,24.10218167,-105.931245,2237
DURANGO,San Juan del Río,24.778255,-104.4592256,1286
DURANGO,Santa Clara,24.47544389,-103.3572222,1471
DURANGO,Santiago Papasquiaro,25.03907972,-105.420945,13735
DURANGO,Súchil,23.62216306,-103.9218697,1573
DURANGO,Tamazula,24.97031611,-106.9666017,1485
DURANGO,Tepehuanes,25.34320861,-105.7230019,2497
DURANGO,Tlahualilo,26.10738583,-103.4392358,3512
DURANGO,Topia,25.2090225,-106.5711958,1037
DURANGO,Vicente Guerrero,23.73111111,-103.9877778,8396
DURANGO,Nuevo Ideal,24.88831333,-105.0742053,5492
GUANAJUATO,Abasolo,20.4509,-101.5283606,14436
GUANAJUATO,Acámbaro,20.03538028,-100.7193264,28330
GUANAJUATO,Apaseo el Alto,20.45717139,-100.6216264,13815
GUANAJUATO,Apaseo el Grande,20.54528417,-100.6882169,15367
GUANAJUATO,Manuel Doblado,20.72751806,-101.9527903,7688
GUANAJUATO,Comonfort,20.7200475,-100.7612022,11791
GUANAJUATO,Coroneo,20.19861111,-100.3644444,1858
GUANAJUATO,Cuerámaro,20.62647833,-101.6703858,6861
GUANAJUATO,Doctor Mora,21.14264,-100.3189494,3057
GUANAJUATO,Huanímaro,20.36827444,-101.4968667,2579
GUANAJUATO,Jaral del Progreso,20.37651667,-101.063975,9984
GUANAJUATO,Jerécuaro,20.15003361,-100.5105281,3966
GUANAJUATO,Moroleón,20.13187028,-101.1892086,23019
GUANAJUATO,Ocampo,21.64849222,-101.4780164,3264
GUANAJUATO,Pénjamo,20.43179472,-101.7250439,20500
GUANAJUATO,Pueblo Nuevo,20.52595722,-101.3708469,1644
GUANAJUATO,Purísima del Rincón,21.02957917,-101.8780992,28014
GUANAJUATO,Romita,20.871215,-101.5171172,11072
GUANAJUATO,Salvatierra,20.2161175,-100.88136,16574
GUANAJUATO,San Diego de la Unión,21.46638667,-100.8733164,3849
GUANAJUATO,San Felipe,21.47933583,-101.2159447,15591
GUANAJUATO,San José Iturbide,21.00082194,-100.3857203,14096
GUANAJUATO,San Luis de la Paz,21.29881611,-100.5151256,24688
GUANAJUATO,Santa Cruz de Juventino Rosas,20.64320028,-100.9940372,20499
GUANAJUATO,Santiago Maravatío,20.17240694,-100.9952256,1776
GUANAJUATO,Tarandacuao,20.00396806,-100.5163286,2375
GUANAJUATO,Tarimoro,20.28854056,-100.7559419,5983
GUANAJUATO,Tierra Blanca,21.1000025,-100.1591539,1186
GUANAJUATO,Uriangato,20.14101167,-101.1780511,28538
GUANAJUATO,Victoria,21.21217222,-100.2159358,1496
GUANAJUATO,Villagrán,20.51137167,-100.9965028,13258
GUANAJUATO,Yuriria,20.21274333,-101.1309333,12967
GUERRERO,Ahuacuotzingo,17.71408889,-98.93490778,1596
GUERRERO,Ajuchitlán del Progreso,18.15955472,-100.4960569,2990
GUERRERO,Alpoyeca,17.67006389,-98.51323889,2009
GUERRERO,Apaxtla,18.13007833,-99.93231361,2879
GUERRERO,Arcelia,18.315825,-100.2839519,11019
GUERRERO,Atenango del Río,18.10434306,-99.10780306,1312
GUERRERO,Atlixtac,17.56367917,-98.93323222,1087
GUERRERO,Atoyac de Álvarez,17.21273889,-100.4331294,12123
GUERRERO,Ayutla de los Libres,16.96528694,-99.09738389,8913
GUERRERO,Azoyú,16.73296028,-98.60109083,2427
GUERRERO,Benito Juárez,17.13636972,-100.4686681,3870
GUERRERO,Buenavista de Cuéllar,18.45788722,-99.40534222,3782
GUERRERO,Cocula,18.23586639,-99.66119,1665
GUERRERO,Copala,16.60875917,-98.97862361,3361
GUERRERO,Copalillo,18.03415139,-99.04172444,2958
GUERRERO,Copanatoyac,17.46184472,-98.71346278,1217
GUERRERO,Coyuca de Benítez,17.00900167,-100.0893672,7239
GUERRERO,Coyuca de Catalán,18.33101944,-100.6985658,3244
GUERRERO,Cuajinicuilapa,16.47198556,-98.41674472,4211
GUERRERO,Cuautepec,16.74900278,-99.00154556,1534
GUERRERO,Cutzamala de Pinzón,18.46524444,-100.5785128,2225
GUERRERO,Chilapa de Álvarez,17.59423222,-99.17768167,17805
GUERRERO,Florencio Villarreal,16.72388056,-99.12378722,6027
GUERRERO,General Heliodoro Castillo,17.78944806,-99.97831778,3798
GUERRERO,Huamuxtitlán,17.80217444,-98.56528667,3578
GUERRERO,Huitzuco de los Figueroa,18.30598,-99.33430306,7713
GUERRERO,Igualapa,16.74371333,-98.4766175,1542
GUERRERO,Ixcateopan de Cuauhtémoc,18.50245222,-99.79356944,1216
GUERRERO,Juan R. Escudero,17.16900444,-99.52204694,5588
GUERRERO,Leonardo Bravo,17.66080194,-99.67734056,5918
GUERRERO,Mártir de Cuilapan,17.74192528,-99.32934111,2617
GUERRERO,Mochitlán,17.47235778,-99.37129444,2939
GUERRERO,Olinalá,17.77833222,-98.74125639,3243
GUERRERO,Ometepec,16.68508917,-98.40442139,13210
GUERRERO,Petatlán,17.53820667,-101.2745519,10816
GUERRERO,Pilcaya,18.74758389,-99.67617472,2978
GUERRERO,Pungarabato,18.36227278,-100.6682408,12577
GUERRERO,Quechultenango,17.40916667,-99.24083333,3240
GUERRERO,San Luis Acatlán,16.80858306,-98.73361278,4731
GUERRERO,San Marcos,16.79734361,-99.39004639,6374
GUERRERO,San Miguel Totolapan,18.16126667,-100.3908211,1619
GUERRERO,Taxco de Alarcón,18.55738194,-99.60459472,26894
GUERRERO,Tecoanapa,16.98885444,-99.26087639,2342
GUERRERO,Técpan de Galeana,17.22260861,-100.6323778,8198
GUERRERO,Teloloapan,18.37180917,-99.86957278,11514
GUERRERO,Tepecoacuilco de Trujano,18.28698972,-99.46669417,3419
GUERRERO,Tetipac,18.64938528,-99.64898222,1073
GUERRERO,Tixtla de Guerrero,17.56672417,-99.39827139,12913
GUERRERO,Tlacoachistlahuaca,16.80990889,-98.30174889,2240
GUERRERO,Tlalchapa,18.40867444,-100.4782533,1621
GUERRERO,Tlalixtaquilla de Maldonado,17.57448361,-98.36986222,1157
GUERRERO,Tlapa de Comonfort,17.54694944,-98.58213833,27316
GUERRERO,Tlapehuala,18.23976028,-100.5415742,3652
GUERRERO,La Unión de Isidoro Montes de Oca,17.98233333,-101.8056847,1423
GUERRERO,Xalpatláhuac,17.47087528,-98.60644917,1120
GUERRERO,Xochihuehuetlán,17.90564028,-98.48766139,2232
GUERRERO,Xochistlahuaca,16.79242361,-98.24246667,2369
GUERRERO,Zirándaro,18.4791325,-100.9758561,1790
GUERRERO,Zitlala,17.69034056,-99.18524778,2498
GUERRERO,Eduardo Neri,17.65319722,-99.52593667,13703
GUERRERO,Acatepec,17.32521889,-98.91033361,1090
GUERRERO,Marquelia,16.58331389,-98.81785194,3536
GUERRERO,Juchitán,16.62707056,-98.63671361,1174
HIDALGO,Acaxochitlán,20.15869333,-98.20324417,2112
HIDALGO,Actopan,20.26908583,-98.94290056,17408
HIDALGO,Agua Blanca de Iturbide,20.34950389,-98.35638611,1099
HIDALGO,Ajacuba,20.092525,-99.1221325,4235
HIDALGO,Alfajayucan,20.40997111,-99.34958917,1017
HIDALGO,Almoloya,19.70331944,-98.40329306,2545
HIDALGO,Apan,19.71,-98.45194444,14038
HIDALGO,El Arenal,20.22142389,-98.91104556,1838
HIDALGO,Atitalaquia,20.05915472,-99.22112861,3243
HIDALGO,Atlapexco,21.01711389,-98.34818667,1450
HIDALGO,Atotonilco el Grande,20.28688167,-98.66906167,4284
HIDALGO,Atotonilco de Tula,20.00776667,-99.22019083,4576
HIDALGO,Calnali,20.89717778,-98.58353222,1808
HIDALGO,Cuautepec de Hinojosa,20.03547,-98.30973806,9966
HIDALGO,Chapulhuacán,21.15941778,-98.9045875,1816
HIDALGO,Emiliano Zapata,19.65700833,-98.54741611,4745
HIDALGO,Epazoyucan,20.01802167,-98.63620917,1632
HIDALGO,Francisco I. Madero,20.24518556,-99.08889361,5773
HIDALGO,Huautla,21.03138667,-98.28682083,1644
HIDALGO,Huehuetla,20.46030556,-98.07842444,1554
HIDALGO,Huejutla de Reyes,21.13921194,-98.420595,21476
HIDALGO,Huichapan,20.37531306,-99.65118056,5088
HIDALGO,Ixmiquilpan,20.48486778,-99.21877361,20404
HIDALGO,Jacala de Ledezma,21.00829639,-99.18856889,2265
HIDALGO,Jaltocán,21.13313194,-98.53832389,2579
HIDALGO,Metztitlán,20.5947,-98.76414444,1681
HIDALGO,Mineral del Monte,20.14049111,-98.67153,5601
HIDALGO,Mixquiahuala de Juárez,20.22938,-99.21379806,14290
HIDALGO,Molango de Escamilla,20.78649833,-98.73081361,2379
HIDALGO,San Felipe Orizatlán,21.17094361,-98.60781528,3590
HIDALGO,Pisaflores,21.19478194,-99.00599722,1243
HIDALGO,Progreso de Obregón,20.24819528,-99.18935889,8836
HIDALGO,Mineral de la Reforma,20.07237139,-98.69603472,5085
HIDALGO,San Agustín Tlaxiaca,20.11566083,-98.8867775,6441
HIDALGO,San Bartolo Tutotepec,20.39914278,-98.20205972,1431
HIDALGO,Santiago de Anaya,20.38258194,-98.9639525,1252
HIDALGO,Santiago Tulantepec de Lugo Guerrero,20.03919306,-98.35700639,8638
HIDALGO,Singuilucan,19.9675,-98.51722222,2099
HIDALGO,Tasquillo,20.55177222,-99.31255611,1855
HIDALGO,Tecozautla,20.53387278,-99.63492389,3509
HIDALGO,Tenango de Doria,20.33805556,-98.22672861,1347
HIDALGO,Tepeapulco,19.78567389,-98.55366167,7833
HIDALGO,Tepeji del Río de Ocampo,19.90521722,-99.34181417,18474
HIDALGO,Tetepango,20.102655,-99.15612333,4072
HIDALGO,Villa de Tezontepec,19.87986083,-98.81929,3303
HIDALGO,Tezontepec de Aldama,20.19276167,-99.27268278,2903
HIDALGO,Tlahuelilpan,20.13062722,-99.23467972,4162
HIDALGO,Tlanalapa,19.81789417,-98.60391306,3638
HIDALGO,Tlanchinol,20.98934556,-98.66028444,2825
HIDALGO,Tlaxcoapan,20.09161444,-99.22159333,7357
HIDALGO,Tolcayuca,19.95659111,-98.92176111,4374
HIDALGO,Tula de Allende,20.05521972,-99.34318889,14523
HIDALGO,Zacualtipán de Ángeles,20.64518139,-98.65362694,14802
HIDALGO,Zapotlán de Juárez,19.97404722,-98.86188278,2637
HIDALGO,Zempoala,19.91539667,-98.66813056,3862
HIDALGO,Zimapán,20.73806889,-99.38311306,6634
JALISCO,Acatic,20.77944444,-102.9052778,6579
JALISCO,Acatlán de Juárez,20.42138889,-103.5872222,5289
JALISCO,Ahualulco de Mercado,20.70055556,-103.975,8452
JALISCO,Amacueca,20.01055556,-103.5961111,1302
JALISCO,Amatitán,20.835,-103.73,5694
JALISCO,Ameca,20.54861111,-104.0430556,18551
JALISCO,San Juanito de Escobedo,20.8004675,-104.0009858,2471
JALISCO,El Arenal,20.77611111,-103.6938889,5825
JALISCO,Atemajac de Brizuela,20.13944944,-103.7245356,2410
JALISCO,Atotonilco el Alto,20.55055556,-102.5041667,14592
JALISCO,Atoyac,20.01055556,-103.5163889,2670
JALISCO,Autlán de Navarro,19.77138889,-104.3652778,27104
JALISCO,Ayotlán,20.52805556,-102.3283333,6953
JALISCO,Ayutla,20.12916667,-104.3477778,3562
JALISCO,La Barca,20.29027778,-102.5419444,18722
JALISCO,Cabo Corrientes,20.31833333,-105.3238889,1923
JALISCO,Casimiro Castillo,19.60361111,-104.4347222,5498
JALISCO,Cihuatlán,19.23834333,-104.5629978,9236
JALISCO,Cocula,20.3675,-103.8241667,8187
JALISCO,Colotlán,22.11722222,-103.2647222,7275
JALISCO,Concepción de Buenos Aires,19.97861111,-103.2572222,2358
JALISCO,Cuautitlán de García Barragán,19.44972222,-104.3569444,1272
JALISCO,Cuquío,20.9275,-103.0238889,2248
JALISCO,Chapala,20.29333333,-103.1897222,12410
JALISCO,Chiquilistlán,20.08861111,-103.8580556,1725
JALISCO,Degollado,20.4475,-102.135,5181
JALISCO,Encarnación de Díaz,21.52444444,-102.2330556,13844
JALISCO,Etzatlán,20.76722222,-104.0783333,7340
JALISCO,El Grullo,19.8075,-104.2155556,11828
JALISCO,Hostotipaquillo,21.05805556,-104.0502778,1422
JALISCO,Huejúcar,22.36222222,-103.2116667,1602
JALISCO,Huejuquilla el Alto,22.62861111,-103.8941667,2529
JALISCO,La Huerta,19.485,-104.6433333,3824
JALISCO,Ixtlahuacán de los Membrillos,20.34913611,-103.1929661,4728
JALISCO,Ixtlahuacán del Río,20.86416667,-103.2391667,3308
JALISCO,Jalostotitlán,21.16861111,-102.4611111,11984
JALISCO,Jamay,20.29449972,-102.7097169,8850
JALISCO,Jesús María,20.6075,-102.22,4714
JALISCO,Jocotepec,20.28444444,-103.4252778,10473
JALISCO,Juanacatlán,20.50944444,-103.1672222,4544
JALISCO,Juchitlán,20.08385556,-104.0962492,1494
JALISCO,El Limón,19.82444444,-104.1522222,1505
JALISCO,Magdalena,20.90638889,-103.9761111,7528
JALISCO,La Manzanilla de la Paz,20.00444444,-103.15,1200
JALISCO,Mascota,20.52555556,-104.7822222,4666
JALISCO,Mazamitla,19.91722222,-103.0202778,4120
JALISCO,Mexticacán,21.26305556,-102.7777778,1266
JALISCO,Ojuelos de Jalisco,21.86416667,-101.5933333,6963
JALISCO,Pihuamo,19.25243917,-103.3750375,3022
JALISCO,Poncitlán,20.38138889,-102.9241667,6969
JALISCO,Villa Purificación,19.71916667,-104.605,2915
JALISCO,El Salto,20.51944444,-103.1816667,13613
JALISCO,San Diego de Alejandría,20.99305556,-101.9936111,2800
JALISCO,San Juan de los Lagos,21.24777778,-102.3327778,27357
JALISCO,San Julián,21.00972222,-102.1808333,6830
JALISCO,San Marcos,20.79,-104.1975,1332
JALISCO,San Martín Hidalgo,20.435,-103.9286111,4316
JALISCO,San Miguel el Alto,21.03055556,-102.3980556,13252
JALISCO,Gómez Farías,19.79444444,-103.4730556,4547
JALISCO,Sayula,19.88361111,-103.5972222,14047
JALISCO,Tala,20.6525,-103.7027778,20755
JALISCO,Talpa de Allende,20.38138889,-104.8180556,5582
JALISCO,Tamazula de Gordiano,19.67638889,-103.25,8886
JALISCO,Tapalpa,19.94555556,-103.7541667,3034
JALISCO,Tecalitlán,19.46944444,-103.3066667,6163
JALISCO,Tecolotlán,20.20361111,-104.045,4930
JALISCO,Techaluta de Montenegro,20.07416667,-103.5516667,1012
JALISCO,Tenamaxtlán,20.21861111,-104.1602778,2440
JALISCO,Teocaltiche,21.43444444,-102.5702778,11965
JALISCO,Teocuitatlán de Corona,20.09333333,-103.38,1832
JALISCO,Tequila,20.87943944,-103.8356467,15336
JALISCO,Teuchitlán,20.68527778,-103.8491667,1788
JALISCO,Tizapán el Alto,20.15861111,-103.0391667,7566
JALISCO,Tlajomulco de Zúñiga,20.47361111,-103.4430556,22428
JALISCO,Tomatlán,19.941525,-105.2452725,5099
JALISCO,Tonaya,19.78416667,-103.9708333,1911
JALISCO,Tonila,19.41083333,-103.5494444,1417
JALISCO,Tototlán,20.54361361,-102.7892175,6615
JALISCO,Tuxpan,19.55444444,-103.3722222,14750
JALISCO,Unión de San Antonio,21.12805556,-102.0072222,4374
JALISCO,Unión de Tula,19.95444444,-104.2644444,4456
JALISCO,Valle de Guadalupe,21.01059806,-102.6177669,2221
JALISCO,Valle de Juárez,19.93361111,-102.9402778,2125
JALISCO,San Gabriel,19.74778278,-103.7664581,2433
JALISCO,Villa Corona,20.41638889,-103.6613889,3859
JALISCO,Villa Guerrero,21.98305556,-103.5966667,1674
JALISCO,Villa Hidalgo,21.67444444,-102.5852778,7545
JALISCO,Cañadas de Obregón,21.14861111,-102.6852778,1175
JALISCO,Yahualica de González Gallo,21.1825,-102.8872222,6959
JALISCO,Zacoalco de Torres,20.22861111,-103.5652778,9642
JALISCO,Zapotiltic,19.62555556,-103.4125,13453
JALISCO,Zapotitlán de Vadillo,19.54814194,-103.8127072,1824
JALISCO,Zapotlán del Rey,20.46638889,-102.9261111,1593
JALISCO,Zapotlanejo,20.6225,-103.0641667,17975
JALISCO,San Ignacio Cerro Gordo,20.74305556,-102.5361111,4788
ESTADO DE MÉXICO,Acambay de Ruíz Castañeda,19.95622861,-99.84403194,3117
ESTADO DE MÉXICO,Acolman,19.63550889,-98.91190556,3230
ESTADO DE MÉXICO,Aculco,20.09938611,-99.82799056,1107
ESTADO DE MÉXICO,Almoloya de Alquisiras,18.86723278,-99.89380028,1716
ESTADO DE MÉXICO,Almoloya de Juárez,19.36929306,-99.75855194,1678
ESTADO DE MÉXICO,Almoloya del Río,19.15938639,-99.48884167,5632
ESTADO DE MÉXICO,Amecameca,19.128685,-98.76981056,16052
ESTADO DE MÉXICO,Apaxco,19.97532472,-99.17416278,7549
ESTADO DE MÉXICO,Atenco,19.55933917,-98.9133475,9619
ESTADO DE MÉXICO,Atizapán,19.17675778,-99.48794194,5515
ESTADO DE MÉXICO,Atlacomulco,19.80002861,-99.87425389,12034
ESTADO DE MÉXICO,Atlautla,19.03086083,-98.78266639,6244
ESTADO DE MÉXICO,Axapusco,19.72445806,-98.75833028,1805
ESTADO DE MÉXICO,Ayapango,19.12722139,-98.80250556,1782
ESTADO DE MÉXICO,Calimaya,19.163225,-99.61866528,6083
ESTADO DE MÉXICO,Capulhuac,19.19312333,-99.46440833,11742
ESTADO DE MÉXICO,Coatepec Harinas,18.92571056,-99.76851861,3400
ESTADO DE MÉXICO,Cocotitlán,19.23085556,-98.86195194,4707
ESTADO DE MÉXICO,Coyotepec,19.7755075,-99.20798028,18538
ESTADO DE MÉXICO,Chapultepec,19.2011625,-99.56187278,3400
ESTADO DE MÉXICO,Chiautla,19.54865194,-98.88134889,5832
ESTADO DE MÉXICO,Chiconcuac,19.55272222,-98.89530694,13491
ESTADO DE MÉXICO,Ecatzingo,18.958715,-98.75259806,3690
ESTADO DE MÉXICO,Huehuetoca,19.83362167,-99.20413806,6024
ESTADO DE MÉXICO,Hueypoxtla,19.90703944,-99.07837,2381
ESTADO DE MÉXICO,Huixquilucan,19.36018,-99.35169167,5512
ESTADO DE MÉXICO,Isidro Fabela,19.55559139,-99.41738,1037
ESTADO DE MÉXICO,Ixtapan de la Sal,18.84460556,-99.67582278,9994
ESTADO DE MÉXICO,Ixtlahuaca,19.56981389,-99.76926722,3998
ESTADO DE MÉXICO,Xalatlaco,19.18438667,-99.41373611,9164
ESTADO DE MÉXICO,Jaltenco,19.75222111,-99.09403139,6616
ESTADO DE MÉXICO,Jilotepec,19.95283444,-99.53282861,6707
ESTADO DE MÉXICO,Jocotitlán,19.71181778,-99.7857975,4095
ESTADO DE MÉXICO,Joquicingo,19.04922833,-99.53181778,2061
ESTADO DE MÉXICO,Juchitepec,19.10191194,-98.88091556,8570
ESTADO DE MÉXICO,Lerma,19.28537333,-99.51181694,17530
ESTADO DE MÉXICO,Malinalco,18.95234167,-99.49756528,4547
ESTADO DE MÉXICO,Melchor Ocampo,19.71041389,-99.14345833,22277
ESTADO DE MÉXICO,Metepec,19.25242,-99.60449167,15646
ESTADO DE MÉXICO,Mexicaltzingo,19.21110944,-99.58685389,4752
ESTADO DE MÉXICO,Nextlalpan,19.73986639,-99.0803375,8654
ESTADO DE MÉXICO,Nopaltepec,19.77879833,-98.70954417,1908
ESTADO DE MÉXICO,Ocoyoacac,19.26928083,-99.45569528,14456
ESTADO DE MÉXICO,Ocuilan,18.97909194,-99.41694417,1150
ESTADO DE MÉXICO,El Oro,19.80214306,-100.1306647,3344
ESTADO DE MÉXICO,Otumba,19.69985361,-98.75769417,4917
ESTADO DE MÉXICO,Otzolotepec,19.41620639,-99.55858944,6030
ESTADO DE MÉXICO,Ozumba,19.03917694,-98.79538944,9282
ESTADO DE MÉXICO,Papalotla,19.5633775,-98.85820917,2236
ESTADO DE MÉXICO,Polotitlán,20.22380944,-99.814745,1610
ESTADO DE MÉXICO,Rayón,19.14801056,-99.58173917,4179
ESTADO DE MÉXICO,San Antonio la Isla,19.16409944,-99.56933583,8331
ESTADO DE MÉXICO,San Felipe del Progreso,19.71392417,-99.95329444,2617
ESTADO DE MÉXICO,San Martín de las Pirámides,19.70484333,-98.83452444,7252
ESTADO DE MÉXICO,Soyaniquilpan de Juárez,20.01389111,-99.52789611,2644
ESTADO DE MÉXICO,Sultepec,18.85854583,-99.96642972,1884
ESTADO DE MÉXICO,Tecámac,19.71020722,-98.9671425,9493
ESTADO DE MÉXICO,Tejupilco,18.90569639,-100.1534028,14719
ESTADO DE MÉXICO,Temamatla,19.20274056,-98.86990222,2778
ESTADO DE MÉXICO,Temascalapa,19.82785778,-98.90083222,3588
ESTADO DE MÉXICO,Temascalcingo,19.91591139,-100.0040806,7157
ESTADO DE MÉXICO,Temascaltepec,19.04307472,-100.0413594,1399
ESTADO DE MÉXICO,Temoaya,19.47001389,-99.59490611,1732
ESTADO DE MÉXICO,Tenancingo,18.96183028,-99.59384167,7797
ESTADO DE MÉXICO,Tenango del Aire,19.15700333,-98.86129556,2340
ESTADO DE MÉXICO,Tenango del Valle,19.10376083,-99.591575,12145
ESTADO DE MÉXICO,Teoloyucan,19.74546556,-99.183065,25344
ESTADO DE MÉXICO,Teotihuacán,19.68547944,-98.86862778,12150
ESTADO DE MÉXICO,Tepetlaoxtoc,19.57336528,-98.81971861,3363
ESTADO DE MÉXICO,Tepetlixpa,19.029515,-98.81970806,7313
ESTADO DE MÉXICO,Tepotzotlán,19.71377806,-99.22351444,21153
ESTADO DE MÉXICO,Tequixquiac,19.91027667,-99.14891306,13073
ESTADO DE MÉXICO,Texcaltitlán,18.93038944,-99.93927667,1366
ESTADO DE MÉXICO,Texcalyacac,19.1322275,-99.50306917,2325
ESTADO DE MÉXICO,Texcoco,19.51343972,-98.88148444,18705
ESTADO DE MÉXICO,Tezoyuca,19.5903125,-98.90850361,9105
ESTADO DE MÉXICO,Tianguistenco,19.18121417,-99.46743889,7147
ESTADO DE MÉXICO,Tlalmanalco,19.20590333,-98.80255361,7198
ESTADO DE MÉXICO,Tonatico,18.80201944,-99.670935,3618
ESTADO DE MÉXICO,Tultitlán,19.64751333,-99.169195,15586
ESTADO DE MÉXICO,Valle de Bravo,19.19439472,-100.1316069,13284
ESTADO DE MÉXICO,Villa del Carbón,19.72758833,-99.46307972,4764
ESTADO DE MÉXICO,Villa Guerrero,18.96170861,-99.64199972,5555
ESTADO DE MÉXICO,Villa Victoria,19.44187556,-99.99505028,2477
ESTADO DE MÉXICO,Xonacatlán,19.40441917,-99.53039583,11393
ESTADO DE MÉXICO,Zacazonapan,19.07445722,-100.2561158,1141
ESTADO DE MÉXICO,Zacualpan,18.71867028,-99.77562167,1382
ESTADO DE MÉXICO,Zinacantepec,19.28490639,-99.7350375,16427
ESTADO DE MÉXICO,Zumpahuacán,18.84092778,-99.58559556,2120
ESTADO DE MÉXICO,Zumpango,19.79712306,-99.10063389,26642
ESTADO DE MÉXICO,Luvianos,18.92048222,-100.2994464,3709
ESTADO DE MÉXICO,Tonanitla,19.68816167,-99.05436167,3339
MICHOACÁN,Acuitzio,19.49625194,-101.3328514,3588
MICHOACÁN,Aguililla,18.73423139,-102.7883797,3701
MICHOACÁN,Álvaro Obregón,19.82630583,-101.038485,4034
MICHOACÁN,Angamacutiro,20.14965444,-101.7083108,2435
MICHOACÁN,Angangueo,19.61983306,-100.2855114,1741
MICHOACÁN,Aquila,18.59913861,-103.5047542,1233
MICHOACÁN,Ario,19.20780722,-101.7093939,8814
MICHOACÁN,Arteaga,18.35569389,-102.2900625,4978
MICHOACÁN,Briseñas,20.27123417,-102.5610575,1712
MICHOACÁN,Buenavista,19.21173528,-102.5878908,6706
MICHOACÁN,Carácuaro,19.01730833,-101.1269908,1674
MICHOACÁN,Coahuayana,18.70247444,-103.6629314,2825
MICHOACÁN,Coalcomán de Vázquez Pallares,18.77709889,-103.1595547,6107
MICHOACÁN,Coeneo,19.82098361,-101.5837508,1637
MICHOACÁN,Contepec,19.95526917,-100.1644572,2063
MICHOACÁN,Copándaro,19.89382389,-101.215305,1092
MICHOACÁN,Cotija,19.81028528,-102.7058219,6542
MICHOACÁN,Cuitzeo,19.96821361,-101.1395842,4882
MICHOACÁN,Charapan,19.65016917,-102.2527378,2042
MICHOACÁN,Charo,19.74667028,-101.0463128,2967
MICHOACÁN,Chavinda,20.00693861,-102.4585847,3007
MICHOACÁN,Cherán,19.68765167,-101.9548161,8044
MICHOACÁN,Chilchota,19.84920694,-102.1194372,4236
MICHOACÁN,Churintzio,20.15095972,-102.0659206,1113
MICHOACÁN,Churumuco,18.66455778,-101.6465525,1907
MICHOACÁN,Ecuandureo,20.16261556,-102.1945664,2003
MICHOACÁN,Erongarícuaro,19.58825278,-101.7200861,1455
MICHOACÁN,Gabriel Zamora,19.15980389,-102.053965,5702
MICHOACÁN,La Huacana,18.96288694,-101.8088672,4466
MICHOACÁN,Huandacareo,19.98870444,-101.2758533,2810
MICHOACÁN,Huetamo,18.62642583,-100.8997247,11529
MICHOACÁN,Huiramba,19.54648111,-101.4379928,1485
MICHOACÁN,Indaparapeo,19.79005944,-100.9684931,3229
MICHOACÁN,Irimbo,19.6974875,-100.4791006,1599
MICHOACÁN,Ixtlán,20.16836611,-102.3946239,2279
MICHOACÁN,Jiménez,19.92226639,-101.7492928,1638
MICHOACÁN,Jiquilpan,19.98971917,-102.7185633,11833
MICHOACÁN,Juárez,19.31227583,-100.4327914,2005
MICHOACÁN,Jungapeo,19.45872528,-100.4946119,2277
MICHOACÁN,Lagunillas,19.56462306,-101.4147792,1020
MICHOACÁN,Madero,19.39212056,-101.2776156,3420
MICHOACÁN,Maravatío,19.89167361,-100.4416672,20747
MICHOACÁN,Marcos Castellanos,19.99023806,-103.0215042,5318
MICHOACÁN,Morelos,20.00425194,-101.4123858,1202
MICHOACÁN,Múgica,19.02880472,-102.0867342,15705
MICHOACÁN,Nahuatzen,19.65407333,-101.9171369,5377
MICHOACÁN,Nocupétaro,19.04329667,-101.1622292,1785
MICHOACÁN,Nuevo Parangaricutiro,19.41664389,-102.1298797,8762
MICHOACÁN,Numarán,20.25489972,-101.9471972,1967
MICHOACÁN,Ocampo,19.58384778,-100.3392819,2048
MICHOACÁN,Pajacuarán,20.11689389,-102.5655133,4649
MICHOACÁN,Panindícuaro,19.98395889,-101.7614597,2355
MICHOACÁN,Parácuaro,19.14577306,-102.2200481,1933
MICHOACÁN,Paracho,19.64729667,-102.0484675,10669
MICHOACÁN,Penjamillo,20.10446833,-101.9336714,1467
MICHOACÁN,Peribán,19.52072694,-102.4161883,8453
MICHOACÁN,Purépero,19.90996306,-102.0067406,6524
MICHOACÁN,Puruándiro,20.08866528,-101.5152003,15828
MICHOACÁN,Queréndaro,19.8100275,-100.8834875,4130
MICHOACÁN,Quiroga,19.66378611,-101.5240036,7933
MICHOACÁN,Cojumatlán de Régules,20.11899833,-102.851005,3192
MICHOACÁN,Los Reyes,19.58897417,-102.4746789,26331
MICHOACÁN,San Lucas,18.59141083,-100.7847522,1602
MICHOACÁN,Santa Ana Maya,20.00839167,-101.0217628,3064
MICHOACÁN,Salvador Escalante,19.40608472,-101.6397978,7981
MICHOACÁN,Senguio,19.73334083,-100.3524072,1284
MICHOACÁN,Tacámbaro,19.23553667,-101.4573281,15160
MICHOACÁN,Tancítaro,19.3374975,-102.3630342,3995
MICHOACÁN,Tangamandapio,19.953995,-102.4328006,5276
MICHOACÁN,Tangancícuaro,19.88823444,-102.2084533,7436
MICHOACÁN,Tanhuato,20.28381111,-102.3276408,3776
MICHOACÁN,Taretan,19.33456222,-101.9179042,2987
MICHOACÁN,Tarímbaro,19.79566556,-101.1763919,3330
MICHOACÁN,Tepalcatepec,19.19136667,-102.8437078,8885
MICHOACÁN,Tingambato,19.50189389,-101.8534764,4237
MICHOACÁN,Tingüindín,19.73895194,-102.4830833,3826
MICHOACÁN,Tiquicheo de Nicolás Romero,18.90048944,-100.7364539,1573
MICHOACÁN,Tlalpujahua,19.80530417,-100.1735928,1723
MICHOACÁN,Tlazazalca,19.97123611,-102.0566794,1326
MICHOACÁN,Tuxpan,19.56796056,-100.4637783,4444
MICHOACÁN,Tuzantla,19.20760639,-100.5730639,1325
MICHOACÁN,Tzintzuntzan,19.62543806,-101.5769511,1849
MICHOACÁN,Venustiano Carranza,20.11597417,-102.6523611,5739
MICHOACÁN,Villamar,20.02085583,-102.5957786,1187
MICHOACÁN,Vista Hermosa,20.273115,-102.4736461,5502
MICHOACÁN,Yurécuaro,20.34108889,-102.2824253,13168
MICHOACÁN,Zacapu,19.81861861,-101.7928597,27186
MICHOACÁN,Zinapécuaro,19.86027472,-100.8275831,7521
MICHOACÁN,Ziracuaretiro,19.41713722,-101.9101883,1453
MICHOACÁN,José Sixto Verduzco,20.30218417,-101.5968558,3180
MORELOS,Amacuzac,18.60000167,-99.36951417,2693
MORELOS,Atlatlahucan,18.93627083,-98.89917528,4550
MORELOS,Axochiapan,18.50240639,-98.75407861,9167
MORELOS,Ayala,18.76708667,-98.98214167,3245
MORELOS,Huitzilac,19.02903306,-99.26745278,2707
MORELOS,Jantetelco,18.71520583,-98.77730083,2411
MORELOS,Jojutla,18.61656639,-99.18104361,8665
MORELOS,Jonacatepec de Leandro Valle,18.68069028,-98.80322306,4224
MORELOS,Mazatepec,18.73318444,-99.36697194,1941
MORELOS,Miacatlán,18.7699825,-99.36026528,3806
MORELOS,Ocuituco,18.87769278,-98.7756975,2797
MORELOS,Puente de Ixtla,18.616875,-99.32370139,10152
MORELOS,Tepalcingo,18.59473639,-98.84435667,6887
MORELOS,Tepoztlán,18.98645722,-99.10122694,8685
MORELOS,Tetecala,18.72896722,-99.39858306,2348
MORELOS,Tetela del Volcán,18.893525,-98.73006556,6067
MORELOS,Tlalnepantla,19.00792694,-98.99735222,2152
MORELOS,Tlaltizapán de Zapata,18.68296222,-99.11817889,5237
MORELOS,Tlaquiltenango,18.63003,-99.16266222,9097
MORELOS,Tlayacapan,18.95661722,-98.9831175,4672
MORELOS,Totolapan,18.98722333,-98.92143889,3452
MORELOS,Xochitepec,18.78186556,-99.23146278,11221
MORELOS,Yautepec,18.88606167,-99.06075417,23255
MORELOS,Yecapixtla,18.88341972,-98.86814361,9748
MORELOS,Zacatepec,18.65540806,-99.19427889,9744
MORELOS,Zacualpan de Amilpas,18.78439306,-98.76542306,1925
MORELOS,Temoac,18.772315,-98.77804306,3247
MORELOS,Coatetelco,18.73048583,-99.3270575,4650
MORELOS,Xoxocotla,18.68657278,-99.24489472,12502
MORELOS,Hueyapan,18.88513444,-98.69068417,3546
NAYARIT,Acaponeta,22.4893875,-105.3601842,9322
NAYARIT,Ahuacatlán,21.05058694,-104.4846644,3615
NAYARIT,Amatlán de Cañas,20.80778222,-104.4053889,1609
NAYARIT,Compostela,21.23752972,-104.9005972,10150
NAYARIT,Huajicori,22.63726083,-105.319985,1251
NAYARIT,Ixtlán del Río,21.03505528,-104.3689111,12229
NAYARIT,Jala,21.10482111,-104.4382167,2706
NAYARIT,Xalisco,21.44368722,-104.8997356,24730
NAYARIT,Del Nayar,22.251125,-104.5179425,1056
NAYARIT,Rosamorada,22.12254528,-105.2041303,2034
NAYARIT,Ruíz,21.95025278,-105.1450567,7254
NAYARIT,San Blas,21.54173806,-105.2860464,6138
NAYARIT,San Pedro Lagunillas,21.22190611,-104.7511097,1710
NAYARIT,Santa María del Oro,21.33318944,-104.5872067,2625
NAYARIT,Santiago Ixcuintla,21.80833583,-105.2060444,9255
NAYARIT,Tecuala,22.39504111,-105.4560339,6734
NAYARIT,Tuxpan,21.94479028,-105.2980872,11311
NAYARIT,Bahía de Banderas,20.80676,-105.2479242,4564
NUEVO LEÓN,Allende,25.2869,-100.0083239,14071
NUEVO LEÓN,Anáhuac,27.24064722,-100.1324361,7048
NUEVO LEÓN,Aramberri,24.10058611,-99.81806667,1166
NUEVO LEÓN,Bustamante,26.53466389,-100.5027056,1331
NUEVO LEÓN,El Carmen,25.93222778,-100.3641222,5506
NUEVO LEÓN,Cerralvo,26.08986944,-99.61473333,2888
NUEVO LEÓN,Ciénega de Flores,25.95206944,-100.1681083,14444
NUEVO LEÓN,China,25.70591389,-99.23931667,3595
NUEVO LEÓN,Doctor Arroyo,23.67469167,-100.1822556,5224
NUEVO LEÓN,Galeana,24.82626667,-100.0774278,3354
NUEVO LEÓN,General Bravo,25.79329722,-99.18123333,1720
NUEVO LEÓN,General Terán,25.25718611,-99.68581389,2761
NUEVO LEÓN,General Zaragoza,23.97326111,-99.77239167,1143
NUEVO LEÓN,General Zuazua,25.89697778,-100.1082472,4852
NUEVO LEÓN,Hualahuises,24.88464167,-99.67322778,2294
NUEVO LEÓN,Lampazos de Naranjo,27.02531222,-100.5043236,2143
NUEVO LEÓN,Marín,25.87930222,-100.0340486,1260
NUEVO LEÓN,Mina,26.00125556,-100.5318444,2159
NUEVO LEÓN,Montemorelos,25.18925278,-99.82695833,26715
NUEVO LEÓN,Pesquería,25.78325833,-100.0536778,24667
NUEVO LEÓN,Sabinas Hidalgo,26.49836944,-100.1811472,15828
NUEVO LEÓN,Salinas Victoria,25.95956667,-100.2915056,7014
NUEVO LEÓN,Hidalgo,25.97565,-100.4468944,7457
NUEVO LEÓN,Santiago,25.4271,-100.1530111,20314
NUEVO LEÓN,Villaldama,26.498225,-100.4245611,1079
OAXACA,Acatlán de Pérez Figueroa,18.53856333,-96.60761,2979
OAXACA,Asunción Ixtaltepec,16.50383972,-95.057045,3847
OAXACA,Asunción Nochixtlán,17.45893639,-97.22519861,7606
OAXACA,Ayotzintepec,17.67670861,-96.13327083,1414
OAXACA,El Barrio de la Soledad,16.803935,-95.11219,1071
OAXACA,Ciénega de Zimatlán,16.89708806,-96.76661833,1344
OAXACA,Ciudad Ixtepec,16.56769833,-95.0987125,12678
OAXACA,Cosolapa,18.60178694,-96.68238611,3914
OAXACA,Cuilápam de Guerrero,16.99600139,-96.78059111,7953
OAXACA,Chahuites,16.28760889,-94.19582389,5722
OAXACA,Chalcatongo de Hidalgo,17.03202889,-97.57098944,1348
OAXACA,Heroica Ciudad de Ejutla de Crespo,16.56427556,-96.73190056,5266
OAXACA,El Espinal,16.48570972,-95.04283611,3814
OAXACA,Tamazulápam del Espíritu Santo,17.05443583,-96.06510611,1442
OAXACA,Guadalupe Etla,17.17163694,-96.81057556,1010
OAXACA,Heroica Ciudad de Huajuapan de León,17.80683722,-97.77623583,28234
OAXACA,Huautla de Jiménez,18.13037722,-96.84616167,5284
OAXACA,Ixtlán de Juárez,17.33152861,-96.48780167,1759
OAXACA,Loma Bonita,18.10987111,-95.87997611,15869
OAXACA,Magdalena Apasco,17.24206306,-96.82109083,1620
OAXACA,Magdalena Teitipac,16.90662056,-96.55873861,2042
OAXACA,Magdalena Tequisistlán,16.39891694,-95.60290944,1642
OAXACA,Matías Romero Avendaño,16.87788944,-95.04214944,8507
OAXACA,Miahuatlán de Porfirio Díaz,16.3284775,-96.59652417,14491
OAXACA,Nazareno Etla,17.17799,-96.82400167,1975
OAXACA,Nejapa de Madero,16.60818139,-95.98044972,1041
OAXACA,Santiago Niltepec,16.56209333,-94.61300417,1393
OAXACA,Ocotlán de Morelos,16.79164056,-96.67506444,8360
OAXACA,Pinotepa de Don Luis,16.42844167,-97.97743528,2380
OAXACA,San José del Progreso,16.68512806,-96.68552861,1519
OAXACA,Putla Villa de Guerrero,17.02620528,-97.92815278,6408
OAXACA,Reforma de Pineda,16.39931889,-94.45843389,1138
OAXACA,Reyes Etla,17.20555611,-96.81009278,1160
OAXACA,San Agustín de las Juntas,17.01166,-96.71144139,4190
OAXACA,San Agustín Etla,17.18908306,-96.76442417,1956
OAXACA,San Agustín Yatareni,17.08121194,-96.66811722,2354
OAXACA,San Andrés Huaxpaltepec,16.32904611,-97.91634889,2080
OAXACA,San Andrés Huayápam,17.10254333,-96.66623917,3015
OAXACA,San Antonino Castillo Velasco,16.8032275,-96.68464,3398
OAXACA,San Antonio de la Cal,17.03131333,-96.69928417,12890
OAXACA,San Bartolo Coyotepec,16.95828139,-96.70765028,2526
OAXACA,San Blas Atempa,16.32632194,-95.22754583,7496
OAXACA,San Cristóbal Amatlán,16.31840806,-96.41001611,1763
OAXACA,San Dionisio del Mar,16.32053917,-94.75700333,1048
OAXACA,San Dionisio Ocotepec,16.79775444,-96.39603722,2587
OAXACA,San Felipe Jalapa de Díaz,18.0712825,-96.536115,3162
OAXACA,San Felipe Tejalápam,17.11140083,-96.8532575,1187
OAXACA,San Felipe Usila,17.879395,-96.52836306,2396
OAXACA,San Francisco Ixhuatán,16.35235667,-94.48382833,2500
OAXACA,San Francisco Lachigoló,17.01140694,-96.59851639,2420
OAXACA,San Francisco Telixtlahuaca,17.29659556,-96.90441333,5659
OAXACA,San Gabriel Mixtepec,16.09442278,-97.07949917,1444
OAXACA,San Jacinto Amilpas,17.10080667,-96.76256167,8869
OAXACA,San José Chiltepec,17.9453525,-96.17053667,1632
OAXACA,Ánimas Trujano,16.98888222,-96.71319611,2004
OAXACA,San Juan Bautista Cuicatlán,17.80154806,-96.95956667,2518
OAXACA,San Juan Cacahuatepec,16.61373389,-98.15609194,1745
OAXACA,San Juan Colorado,16.45966583,-97.95398917,2212
OAXACA,San Juan Cotzocón,17.16400222,-95.78231028,1774
OAXACA,San Juan del Estado,17.27352833,-96.79927278,1184
OAXACA,San Juan Guelavía,16.95676333,-96.54583194,1346
OAXACA,San Juan Guichicovi,16.96282889,-95.09509417,2203
OAXACA,San Juan Mazatlán,17.03112361,-95.44646694,1124
OAXACA,San Juan Teitipac,16.93439889,-96.60850944,1072
OAXACA,San Lorenzo Cacaotepec,17.12935861,-96.80199556,5427
OAXACA,San Lucas Ojitlán,18.05750306,-96.39776278,2772
OAXACA,San Mateo del Mar,16.20970028,-94.98189194,1638
OAXACA,San Miguel Panixtlahuaca,16.26003111,-97.37964333,1426
OAXACA,San Miguel Quetzaltepec,16.97548667,-95.76168028,1189
OAXACA,San Miguel Soyaltepec,18.24037167,-96.40358139,3441
OAXACA,San Miguel Tilquiápam,16.78194222,-96.58155639,1007
OAXACA,San Pablo Etla,17.14550556,-96.76449,2451
OAXACA,San Pablo Huitzo,17.27736722,-96.88449556,3049
OAXACA,San Pablo Huixtepec,16.82673639,-96.781005,4687
OAXACA,San Pablo Villa de Mitla,16.92185972,-96.36215472,5452
OAXACA,San Pedro Amuzgos,16.65390417,-98.08992694,2286
OAXACA,San Pedro Comitancillo,16.49030361,-95.15987778,1818
OAXACA,San Pedro Huamelula,16.02903194,-95.66885583,1161
OAXACA,San Pedro Huilotepec,16.24365722,-95.15293444,1373
OAXACA,San Pedro Ixtlahuaca,17.06327611,-96.82009417,1905
OAXACA,San Pedro Jicayán,16.45218639,-98.01519861,1528
OAXACA,San Pedro Mixtepec,15.98264361,-97.08383194,2636
OAXACA,San Pedro Pochutla,15.74634083,-96.46523028,7815
OAXACA,San Pedro Quiatoni,16.78319972,-96.03155111,1200
OAXACA,San Pedro Tapanatepec,16.36724861,-94.19384833,4166
OAXACA,Villa de Etla,17.20752806,-96.80057944,3902
OAXACA,San Raymundo Jalpan,16.97039639,-96.75549778,1215
OAXACA,San Sebastián Tecomaxtlahuaca,17.34585639,-98.03117389,1207
OAXACA,San Sebastián Tutla,17.05847611,-96.67212028,3047
OAXACA,Santa Ana Zegache,16.83787528,-96.72593889,1049
OAXACA,Santa Catarina Juquila,16.23700944,-97.29247278,4115
OAXACA,Santa Catarina Mechoacán,16.33443361,-97.83602583,1739
OAXACA,Santa Cruz Amilpas,17.0587,-96.68401722,6820
OAXACA,Santa Cruz Papalutla,16.95948861,-96.58491139,1093
OAXACA,Santa Cruz Xitla,16.32243667,-96.67312889,1468
OAXACA,Santa Lucía del Camino,17.06411806,-96.69467722,24452
OAXACA,Santa Lucía Ocotlán,16.74219,-96.68039611,1663
OAXACA,Heroica Ciudad de Tlaxiaco,17.26746972,-97.68049167,10061
OAXACA,Ayoquezco de Aldama,16.68566556,-96.84311444,1588
OAXACA,Santa María Atzompa,17.10286556,-96.77926111,15239
OAXACA,Santa María Coyotepec,16.96716056,-96.70673639,1384
OAXACA,Santa María del Tule,17.04670167,-96.63659222,4244
OAXACA,Santa María Huatulco,15.83611139,-96.32209306,5587
OAXACA,Santa María Huazolotitlán,16.30222222,-97.91286111,2018
OAXACA,Santa María Jalapa del Marqués,16.44006528,-95.44337806,4356
OAXACA,Santa María Mixtequilla,16.37370833,-95.26047333,1608
OAXACA,Santa María Petapa,16.82242917,-95.12003861,1214
OAXACA,Santa María Tlahuitoltepec,17.09753694,-96.06325222,1254
OAXACA,Santa María Xadani,16.36030083,-95.01985028,4222
OAXACA,Santa María Zacatepec,16.76389444,-97.9898775,2862
OAXACA,Santiago Apóstol,16.80426306,-96.72241389,1614
OAXACA,Santiago Jamiltepec,16.27945833,-97.81968222,5030
OAXACA,Santiago Juxtlahuaca,17.33529028,-98.01244944,5359
OAXACA,Santiago Laollaga,16.58488667,-95.20457917,1189
OAXACA,Santiago Matatlán,16.86609944,-96.38342333,1913
OAXACA,Santiago Pinotepa Nacional,16.33900917,-98.0503475,16895
OAXACA,Santiago Suchilquitongo,17.24712583,-96.87368611,4020
OAXACA,Santiago Yaitepec,16.22557111,-97.26935972,1325
OAXACA,Santo Domingo Ingenio,16.58849222,-94.76863,2580
OAXACA,Santo Domingo Petapa,16.82066917,-95.1404225,2629
OAXACA,Santo Domingo Tehuantepec,16.33205833,-95.23204917,22764
OAXACA,Santo Domingo Tomaltepec,17.06041972,-96.6243575,1405
OAXACA,Santo Domingo Tonalá,17.67461167,-97.96393222,1042
OAXACA,Santo Domingo Zanatepec,16.48280361,-94.35390333,3750
OAXACA,Santos Reyes Nopala,16.10676444,-97.14444694,3214
OAXACA,Santo Tomás Mazaltepec,17.17352667,-96.87153333,1337
OAXACA,Silacayoápam,17.50144722,-98.14258528,1155
OAXACA,Soledad Etla,17.17168417,-96.82075694,2151
OAXACA,Villa de Tamazulápam del Progreso,17.67306278,-97.57284806,3202
OAXACA,Tataltepec de Valdés,16.30640639,-97.54606944,1025
OAXACA,Teotitlán de Flores Magón,18.13233444,-97.07070417,3932
OAXACA,Teotitlán del Valle,17.02957944,-96.51894861,2998
OAXACA,"Heroica Villa Tezoatlán de Segura y Luna, Cuna de la Independencia de Oaxaca",17.65446639,-97.80833778,1118
OAXACA,San Jerónimo Tlacochahuaya,17.00886694,-96.58107361,1323
OAXACA,Tlacolula de Matamoros,16.95562389,-96.479215,7941
OAXACA,Tlalixtac de Cabrera,17.07448444,-96.64841694,6090
OAXACA,Unión Hidalgo,16.47282389,-94.82893889,6303
OAXACA,San Juan Bautista Valle Nacional,17.77495333,-96.30404472,2751
OAXACA,Villa Díaz Ordaz,16.99854806,-96.43253694,1510
OAXACA,Yaxe,16.72512667,-96.47247861,1146
OAXACA,Villa de Zaachila,16.95071778,-96.75058833,8893
OAXACA,Zimatlán de Álvarez,16.86668611,-96.78563306,7440
PUEBLA,Acajete,19.10494028,-97.952715,5790
PUEBLA,Acateno,20.12990528,-97.21040361,1635
PUEBLA,Acatlán,18.20230139,-98.04860583,8970
PUEBLA,Acatzingo,18.979455,-97.78545972,14768
PUEBLA,Acteopan,18.76502028,-98.71529139,1213
PUEBLA,Ahuazotepec,20.04604667,-98.1623475,1127
PUEBLA,Ajalpan,18.37753667,-97.25830444,17112
PUEBLA,Aljojuca,19.10040639,-97.53133528,1649
PUEBLA,Altepexi,18.36676694,-97.29917972,11602
PUEBLA,Atempan,19.8399,-97.45927861,3662
PUEBLA,Atoyatempan,18.82256694,-97.91374972,3440
PUEBLA,Atzitzintla,18.89738194,-97.32738778,1494
PUEBLA,Ayotoxco de Guerrero,20.09715944,-97.41052361,1536
PUEBLA,Calpan,19.10793806,-98.45923917,3907
PUEBLA,Caxhuacan,20.06395806,-97.60661722,1283
PUEBLA,Coronango,19.13110222,-98.30807361,7812
PUEBLA,Coxcatlán,18.26653306,-97.14711306,3140
PUEBLA,Cuapiaxtla de Madero,18.91687333,-97.8252975,3736
PUEBLA,Cuautinchán,18.95571417,-98.01597639,1405
PUEBLA,Cuautlancingo,19.08934694,-98.27331,19175
PUEBLA,Cuetzalan del Progreso,20.01852028,-97.52077056,3454
PUEBLA,Chalchicomula de Sesma,18.98826,-97.44849583,11695
PUEBLA,Chapulco,18.62048806,-97.41116722,3020
PUEBLA,Chiautla,18.29965111,-98.60278111,5222
PUEBLA,Chiautzingo,19.20291444,-98.46825917,4171
PUEBLA,Chiconcuautla,20.0947675,-97.93962556,2179
PUEBLA,Chichiquila,19.2002575,-97.06771,1221
PUEBLA,Chietla,18.51936472,-98.5783525,2606
PUEBLA,Chignahuapan,19.83822333,-98.03097528,11202
PUEBLA,Chignautla,19.81391194,-97.38958972,6378
PUEBLA,Chilchotla,19.25520194,-97.18389333,2435
PUEBLA,Domingo Arenas,19.14202861,-98.45750917,3154
PUEBLA,Esperanza,18.85835694,-97.37512639,3592
PUEBLA,Francisco Z. Mena,20.73369417,-97.8521375,2195
PUEBLA,General Felipe Ángeles,18.9934075,-97.70879417,1731
PUEBLA,Guadalupe Victoria,19.28978639,-97.34269556,5678
PUEBLA,Huaquechula,18.77070778,-98.54153194,1553
PUEBLA,Huauchinango,20.17469778,-98.05134,28429
PUEBLA,Huehuetlán el Chico,18.37316694,-98.68794806,1967
PUEBLA,Huejotzingo,19.15899417,-98.40813111,14815
PUEBLA,Hueyapan,19.88255806,-97.44586278,3575
PUEBLA,Hueytamalco,19.93947889,-97.28904083,3111
PUEBLA,Huitzilan de Serdán,19.96621222,-97.69365917,1975
PUEBLA,Huitziltepec,18.76941556,-97.88083333,1236
PUEBLA,Ixcaquixtla,18.46009556,-97.8323475,2497
PUEBLA,Ixtepec,20.02493667,-97.64677944,1381
PUEBLA,Izúcar de Matamoros,18.60223111,-98.46540639,24258
PUEBLA,Jolalpan,18.32051667,-98.8442975,2947
PUEBLA,Juan C. Bonilla,19.110695,-98.32903333,2053
PUEBLA,Juan Galindo,20.21208306,-98.00214194,3526
PUEBLA,Libres,19.4647325,-97.68772611,8524
PUEBLA,Cañada Morelos,18.73699389,-97.42209583,1864
PUEBLA,Nealtican,19.05094667,-98.42773028,6487
PUEBLA,Nopalucan,19.21602917,-97.82353778,3509
PUEBLA,Ocoyucan,18.97687333,-98.30254639,2875
PUEBLA,Oriental,19.3758025,-97.61935083,5077
PUEBLA,Pahuatlán,20.27572611,-98.14991028,1689
PUEBLA,Palmar de Bravo,18.83592639,-97.54750667,2452
PUEBLA,Petlalcingo,18.08220139,-97.91784806,1159
PUEBLA,Quecholac,18.95506333,-97.66044861,5619
PUEBLA,Rafael Lara Grajales,19.22538417,-97.80455083,4828
PUEBLA,Los Reyes de Juárez,18.94678833,-97.81310361,9059
PUEBLA,San Andrés Cholula,19.05094389,-98.30065556,24390
PUEBLA,San Felipe Teotlalcingo,19.23572472,-98.49545472,2812
PUEBLA,San Gabriel Chilac,18.32627333,-97.34798167,6719
PUEBLA,San Gregorio Atzompa,19.02668583,-98.34576556,2376
PUEBLA,San Jerónimo Tecuanipan,19.01441194,-98.40095694,1176
PUEBLA,San José Chiapa,19.24207056,-97.76883333,2395
PUEBLA,San José Miahuatlán,18.29023833,-97.287655,3829
PUEBLA,San Matías Tlalancaleca,19.32442722,-98.49816333,5475
PUEBLA,San Miguel Xoxtla,19.16830278,-98.30969889,5247
PUEBLA,San Nicolás Buenos Aires,19.16189667,-97.54841194,1384
PUEBLA,San Nicolás de los Ranchos,19.07258917,-98.48569694,3216
PUEBLA,San Salvador el Seco,19.13474528,-97.64274972,9220
PUEBLA,San Salvador el Verde,19.26902056,-98.51716583,1361
PUEBLA,San Salvador Huixcolotla,18.92060972,-97.77178944,7604
PUEBLA,Santa Inés Ahuatempan,18.41271778,-98.01769556,1602
PUEBLA,Santa Isabel Cholula,18.99457444,-98.37923917,1008
PUEBLA,Santiago Miahuatlán,18.55315528,-97.44185333,8291
PUEBLA,Santo Tomás Hueyotlipan,18.89108917,-97.86723111,2530
PUEBLA,Soltepec,19.11922806,-97.70844472,2905
PUEBLA,Tecali de Herrera,18.9010325,-97.96913611,2964
PUEBLA,Tecamachalco,18.88469167,-97.72841611,15233
PUEBLA,Tecomatlán,18.11096028,-98.3143725,1471
PUEBLA,Tehuitzingo,18.33171417,-98.27612611,2665
PUEBLA,Tepanco de López,18.55506861,-97.56149806,1714
PUEBLA,Tepango de Rodríguez,20.0028125,-97.79627,1123
PUEBLA,Tepatlaxco de Hidalgo,19.07730222,-97.96661694,7913
PUEBLA,Tepeaca,18.96613278,-97.90543444,14239
PUEBLA,Tepeojuma,18.72244861,-98.45028861,2468
PUEBLA,Tepexi de Rodríguez,18.58101694,-97.92619028,2783
PUEBLA,Tepeyahualco de Cuauhtémoc,18.81314917,-97.87802861,1286
PUEBLA,Tetela de Ocampo,19.81675806,-97.80597222,2855
PUEBLA,Teteles de Avila Castillo,19.85829,-97.4571525,2256
PUEBLA,Tianguismanalco,18.97775889,-98.44821917,3161
PUEBLA,Tilapa,18.59158111,-98.55641,1343
PUEBLA,Tlacotepec de Benito Juárez,18.6827675,-97.65353972,4878
PUEBLA,Tlachichuca,19.11563472,-97.41911306,4017
PUEBLA,Tlahuapan,19.33050361,-98.58239889,4326
PUEBLA,Tlaltenango,19.17002333,-98.34431639,2676
PUEBLA,Tlanepantla,18.86536389,-97.88739694,1962
PUEBLA,Tlapanalá,18.69614417,-98.53779444,1455
PUEBLA,Tlatlauquitepec,19.85132972,-97.49666972,4890
PUEBLA,Tochimilco,18.89292444,-98.57216611,1846
PUEBLA,Tochtepec,18.84011417,-97.82574889,3433
PUEBLA,Tulcingo,18.04513583,-98.44130972,3084
PUEBLA,Venustiano Carranza,20.50493083,-97.66938333,2859
PUEBLA,Vicente Guerrero,18.53787167,-97.20245611,1187
PUEBLA,Xicotepec,20.27605861,-97.95814361,20357
PUEBLA,Xiutetelco,19.79606139,-97.32651778,4534
PUEBLA,Xochitlán de Vicente Suárez,19.96832556,-97.63009333,1437
PUEBLA,Xochitlán Todos Santos,18.70549361,-97.77507694,2276
PUEBLA,Yaonáhuac,19.87089528,-97.46644611,1866
PUEBLA,Yehualtepec,18.79329111,-97.66286972,3392
PUEBLA,Zacapoaxtla,19.87303639,-97.58955361,4714
PUEBLA,Zacatlán,19.932365,-97.96024444,19749
PUEBLA,Zapotitlán,18.32970889,-97.47542083,1694
PUEBLA,Zaragoza,19.771435,-97.5556475,5450
PUEBLA,Zinacatepec,18.33326833,-97.24541306,9435
PUEBLA,Zongozotla,19.97863833,-97.72674167,1649
PUEBLA,Zoquitlán,18.33572694,-97.01725889,1214
QUERÉTARO,Amealco de Bonfil,20.18644389,-100.144195,4103
QUERÉTARO,Cadereyta de Montes,20.69502333,-99.81563306,7754
QUERÉTARO,Colón,20.78832639,-100.0454306,3827
QUERÉTARO,Ezequiel Montes,20.665295,-99.89840556,8447
QUERÉTARO,Jalpan de Serra,21.21680222,-99.47291083,6936
QUERÉTARO,El Marqués,20.60656972,-100.3310967,5958
QUERÉTARO,Pedro Escobedo,20.50249361,-100.1447303,7007
QUERÉTARO,Tequisquiapan,20.5188175,-99.88384,18753
QUERÉTARO,Tolimán,20.90814917,-99.93080083,2999
QUINTANA ROO,Felipe Carrillo Puerto,19.57851,-88.04658667,14552
QUINTANA ROO,Isla Mujeres,21.25656917,-86.74609167,7744
QUINTANA ROO,Lázaro Cárdenas,21.10139889,-87.4872225,4032
QUINTANA ROO,Tulum,20.21077667,-87.46320472,18902
QUINTANA ROO,Bacalar,18.67614667,-88.38935278,6404
QUINTANA ROO,Puerto Morelos,20.8484525,-86.87617722,11163
SAN LUIS POTOSÍ,Ahualulco,22.40009944,-101.1668422,2719
SAN LUIS POTOSÍ,Aquismón,21.62136194,-99.01953528,1156
SAN LUIS POTOSÍ,Cárdenas,22.00090444,-99.642505,7226
SAN LUIS POTOSÍ,Cedral,23.81933167,-100.7266061,5799
SAN LUIS POTOSÍ,Cerritos,22.42766611,-100.2795967,7394
SAN LUIS POTOSÍ,Ciudad del Maíz,22.39984611,-99.60057361,4544
SAN LUIS POTOSÍ,Ciudad Fernández,21.94351194,-100.0110222,17998
SAN LUIS POTOSÍ,Tancanhuitz,21.59731889,-98.96638778,1481
SAN LUIS POTOSÍ,Coxcatlán,21.54114278,-98.90346944,1141
SAN LUIS POTOSÍ,Charcas,23.12981833,-101.1133522,6130
SAN LUIS POTOSÍ,Ebano,22.21233917,-98.37780333,11704
SAN LUIS POTOSÍ,Moctezuma,22.74989361,-101.0855594,2176
SAN LUIS POTOSÍ,Rayón,21.84372361,-99.64531528,2621
SAN LUIS POTOSÍ,Salinas,22.628015,-101.715735,7949
SAN LUIS POTOSÍ,San Ciro de Acosta,21.65000694,-99.818685,3192
SAN LUIS POTOSÍ,San Martín Chalchicuautla,21.36970333,-98.65723833,1167
SAN LUIS POTOSÍ,Santa María del Río,21.80043861,-100.7371089,7037
SAN LUIS POTOSÍ,San Vicente Tancuayalab,21.71494444,-98.58571778,3145
SAN LUIS POTOSÍ,Tamasopo,21.92390167,-99.39215972,2347
SAN LUIS POTOSÍ,Tamazunchale,21.26273778,-98.7915175,11862
SAN LUIS POTOSÍ,Tampamolón Corona,21.56035167,-98.81511444,1453
SAN LUIS POTOSÍ,Tamuín,22.00414667,-98.77516083,8125
SAN LUIS POTOSÍ,Tanquián de Escobedo,21.59808806,-98.6620625,4389
SAN LUIS POTOSÍ,Tierra Nueva,21.66745583,-100.5739183,1960
SAN LUIS POTOSÍ,Venado,22.93134389,-101.0946294,2916
SAN LUIS POTOSÍ,Villa de Arriaga,21.91013583,-101.3833703,2831
SAN LUIS POTOSÍ,Villa de la Paz,23.67535139,-100.7131708,1483
SAN LUIS POTOSÍ,Villa de Reyes,21.80312444,-100.9324858,5912
SAN LUIS POTOSÍ,Villa Hidalgo,22.44869278,-100.6788636,1443
SAN LUIS POTOSÍ,Villa Juárez,22.32320944,-100.2666489,1659
SAN LUIS POTOSÍ,Axtla de Terrazas,21.43638889,-98.875,4240
SAN LUIS POTOSÍ,Xilitla,21.38519278,-98.98957306,3488
SAN LUIS POTOSÍ,Zaragoza,22.035605,-100.7309667,4969
SAN LUIS POTOSÍ,Matlapa,21.33750444,-98.82680333,1803
SAN LUIS POTOSÍ,El Naranjo,22.52203611,-99.32250944,4992
SINALOA,Angostura,25.36436,-108.1594886,2674
SINALOA,Badiraguato,25.36265167,-107.5510183,1836
SINALOA,Concordia,23.28762556,-106.0686108,4533
SINALOA,Cosalá,24.41134583,-106.6915347,3295
SINALOA,Choix,26.70701083,-108.3223519,5080
SINALOA,Elota,23.91540389,-106.8927117,9597
SINALOA,Escuinapa,22.83505139,-105.7778758,16923
SINALOA,El Fuerte,26.42159889,-108.6199664,6398
SINALOA,Mocorito,25.48187694,-107.9215617,2708
SINALOA,Rosario,22.99087417,-105.8537567,8632
SINALOA,San Ignacio,23.94027583,-106.4254969,1855
SINALOA,Sinaloa,25.82237222,-108.2220458,2312
SINALOA,Navolato,24.76721889,-107.6967603,14677
SONORA,Alamos,27.02405,-108.9349258,5003
SONORA,Altar,30.71333889,-111.8335719,3595
SONORA,Bácum,27.55057833,-110.0826747,2059
SONORA,Benjamín Hill,30.16716306,-111.1179217,1898
SONORA,Cananea,30.98265278,-110.3016714,16601
SONORA,Carbó,29.68468861,-110.9544314,1962
SONORA,Cumpas,29.99356361,-109.7824969,1317
SONORA,Empalme,27.95760583,-110.8159933,18681
SONORA,Etchojoa,26.91083333,-109.6252778,4373
SONORA,Huatabampo,26.82689694,-109.6441533,13615
SONORA,Imuris,30.77732972,-110.8615386,3210
SONORA,Magdalena,30.63035556,-110.9694044,14246
SONORA,Moctezuma,29.80217972,-109.6803367,2030
SONORA,Naco,31.33154722,-109.9481319,2251
SONORA,Nacozari de García,30.3737225,-109.6864703,5678
SONORA,Pitiquito,30.67599583,-112.0539253,2510
SONORA,Rosario,27.84065917,-109.37077,1268
SONORA,Sahuaripa,29.05633056,-109.2333706,1502
SONORA,Santa Ana,30.54389056,-111.1210858,5556
SONORA,Ures,29.42807667,-110.3895825,1687
SONORA,General Plutarco Elías Calles,31.86639583,-112.8572769,5300
SONORA,Benito Juárez,27.12781,-109.8425733,6212
SONORA,San Ignacio Río Muerto,27.411415,-110.2415142,3751
TABASCO,Balancán,17.800395,-91.53384611,6977
TABASCO,Centla,18.53011083,-92.65218722,10336
TABASCO,Comalcalco,18.26604806,-93.22501722,20961
TABASCO,Cunduacán,18.06536333,-93.17430028,10155
TABASCO,Emiliano Zapata,17.74458222,-91.76508139,11251
TABASCO,Huimanguillo,17.83517444,-93.39076917,13277
TABASCO,Jalapa,17.71972917,-92.81217139,2876
TABASCO,Jalpa de Méndez,18.1768475,-93.06259667,7229
TABASCO,Jonuta,18.09070611,-92.13872917,3737
TABASCO,Macuspana,17.75643139,-92.59407056,14194
TABASCO,Nacajuca,18.16885722,-93.02004278,5549
TABASCO,Paraíso,18.39577,-93.21423694,11713
TABASCO,Tacotalpa,17.5917925,-92.82628389,3515
TABASCO,Teapa,17.54828444,-92.95299444,14498
TABASCO,Tenosique,17.47749417,-91.42594778,16929
TAMAULIPAS,Abasolo,24.06083667,-98.37427889,2369
TAMAULIPAS,Aldama,22.91930611,-98.07371306,6754
TAMAULIPAS,Antiguo Morelos,22.54942,-99.08361722,1569
TAMAULIPAS,Camargo,26.31672389,-98.83598861,4524
TAMAULIPAS,González,22.82732889,-98.42596889,4976
TAMAULIPAS,Guerrero,26.56635111,-99.22763,1726
TAMAULIPAS,Gustavo Díaz Ordaz,26.23396667,-98.59028194,5631
TAMAULIPAS,Hidalgo,24.24694444,-99.43805556,1481
TAMAULIPAS,Jaumave,23.40512028,-99.375675,2735
TAMAULIPAS,Jiménez,24.21449333,-98.48570444,1762
TAMAULIPAS,Llera,23.31896,-99.02363028,1855
TAMAULIPAS,Mier,26.43047028,-99.14869417,3050
TAMAULIPAS,Miguel Alemán,26.40101778,-99.02610917,10834
TAMAULIPAS,Nuevo Morelos,22.53447056,-99.22133278,1019
TAMAULIPAS,Ocampo,22.84504028,-99.33602389,2452
TAMAULIPAS,Padilla,24.04879861,-98.90029417,2439
TAMAULIPAS,San Fernando,24.84867806,-98.15962083,12642
TAMAULIPAS,Soto la Marina,23.76703861,-98.20619,5394
TAMAULIPAS,Tula,22.99687694,-99.71299778,5108
TAMAULIPAS,Valle Hermoso,25.67379972,-97.81245417,23196
TAMAULIPAS,Xicoténcatl,22.99677167,-98.94567722,4456
TLAXCALA,Amaxac de Guerrero,19.35028583,-98.16956944,5171
TLAXCALA,Apetatitlán de Antonio Carvajal,19.33226028,-98.19682167,2008
TLAXCALA,Atltzayanca,19.43136417,-97.79653194,2224
TLAXCALA,Apizaco,19.41633472,-98.14061167,24343
TLAXCALA,Calpulalpan,19.58852583,-98.57047556,18205
TLAXCALA,El Carmen Tequexquitla,19.32458611,-97.65915917,5929
TLAXCALA,Cuapiaxtla,19.29666056,-97.76937528,4599
TLAXCALA,Cuaxomulco,19.35580722,-98.10312222,1656
TLAXCALA,Chiautempan,19.31398,-98.19296139,27659
TLAXCALA,Españita,19.46229944,-98.42380667,1234
TLAXCALA,Huamantla,19.31265972,-97.92310278,29959
TLAXCALA,Hueyotlipan,19.46998806,-98.34849806,2479
TLAXCALA,Ixtacuixtla de Mariano Matamoros,19.32664583,-98.377115,3665
TLAXCALA,Ixtenco,19.25114417,-97.89511111,3748
TLAXCALA,Mazatecochco de José María Morelos,19.17972583,-98.19067944,5555
TLAXCALA,Contla de Juan Cuamatzi,19.33451778,-98.16790639,15615
TLAXCALA,Tepetitla de Lardizábal,19.26753,-98.38200889,4582
TLAXCALA,Sanctórum de Lázaro Cárdenas,19.49270472,-98.47204111,1940
TLAXCALA,Nanacamilpa de Mariano Arista,19.49316,-98.5363425,6191
TLAXCALA,Panotla,19.31512917,-98.26723306,4139
TLAXCALA,Santa Cruz Tlaxcala,19.35579528,-98.15037972,2764
TLAXCALA,Tenancingo,19.14775778,-98.20253,4773
TLAXCALA,Teolocholco,19.24439444,-98.19235139,8979
TLAXCALA,Tepeyanco,19.24556722,-98.23603528,1837
TLAXCALA,Terrenate,19.4774375,-97.91910472,2257
TLAXCALA,Tetla de la Solidaridad,19.44141556,-98.10405222,8262
TLAXCALA,Tetlatlahuca,19.23163944,-98.29572833,2146
TLAXCALA,Tlaxcala,19.31655278,-98.23764028,7165
TLAXCALA,Tlaxco,19.61488944,-98.11920111,8397
TLAXCALA,Tocatlán,19.39045194,-98.03193111,2690
TLAXCALA,Totolac,19.32564417,-98.25841333,3841
TLAXCALA,Ziltlaltépec de Trinidad Sánchez Santos,19.20472972,-97.90875639,2837
TLAXCALA,Tzompantepec,19.37606222,-98.09117139,1128
TLAXCALA,Xaloztoc,19.40418028,-98.04882306,5472
TLAXCALA,Papalotla de Xicohténcatl,19.1698525,-98.20458639,13842
TLAXCALA,Xicohtzinco,19.17503389,-98.23372222,6464
TLAXCALA,Yauhquemehcan,19.40501,-98.18401083,2099
TLAXCALA,Zacatelco,19.21615,-98.24022639,22762
TLAXCALA,Benito Juárez,19.58451361,-98.4263575,2584
TLAXCALA,Emiliano Zapata,19.55880583,-97.91720056,1458
TLAXCALA,Lázaro Cárdenas,19.53876389,-97.98319056,1145
TLAXCALA,San Damián Texóloc,19.27843167,-98.28462389,2855
TLAXCALA,San Francisco Tetlanohcan,19.26007833,-98.16355028,5430
TLAXCALA,San Jerónimo Zacualpan,19.24171194,-98.26261722,1811
TLAXCALA,San José Teacalco,19.33570417,-98.06442306,2376
TLAXCALA,San Juan Huactzinco,19.23794556,-98.25030056,4135
TLAXCALA,San Lorenzo Axocomanitla,19.22522361,-98.24887389,2422
TLAXCALA,Santa Ana Nopalucan,19.29983556,-98.33418917,3574
TLAXCALA,Santa Apolonia Teacalco,19.23716833,-98.30866917,1851
TLAXCALA,Santa Catarina Ayometla,19.19991889,-98.21441833,3807
TLAXCALA,Santa Cruz Quilehtla,19.21317972,-98.22201778,2561
TLAXCALA,Santa Isabel Xiloxoxtla,19.26806444,-98.21355806,2328
VERACRUZ,Acatlán,19.69692417,-96.84217472,1288
VERACRUZ,Acayucan,17.9488225,-94.91387083,25613
VERACRUZ,Actopan,19.50405111,-96.61688139,2294
VERACRUZ,Acula,18.50603056,-95.77458389,1237
VERACRUZ,Acultzingo,18.71876278,-97.30283722,3142
VERACRUZ,Camarón de Tejeda,19.02117472,-96.61497556,1045
VERACRUZ,Alto Lucero de Gutiérrez Barrios,19.62352472,-96.73361944,2326
VERACRUZ,Altotonga,19.76614889,-97.24552611,11322
VERACRUZ,Alvarado,18.7742775,-95.76392917,10268
VERACRUZ,Naranjos Amatlán,21.3469025,-97.68625167,8829
VERACRUZ,Amatlán de los Reyes,18.84757833,-96.91548389,5165
VERACRUZ,Angel R. Cabada,18.59548167,-95.44272528,6779
VERACRUZ,La Antigua,19.36683028,-96.37138944,9993
VERACRUZ,Atoyac,18.91428861,-96.77827389,1295
VERACRUZ,Atzacan,18.90696778,-97.08390472,4775
VERACRUZ,Atzalan,19.78907583,-97.24414278,1168
VERACRUZ,Tlaltetela,19.31465972,-96.90258556,2631
VERACRUZ,Ayahualulco,19.35158556,-97.14880333,1116
VERACRUZ,Banderilla,19.59160667,-96.94088444,11440
VERACRUZ,Boca del Río,19.10543889,-96.10665139,4851
VERACRUZ,Camerino Z. Mendoza,18.80424083,-97.18471722,15968
VERACRUZ,Catemaco,18.42461472,-95.11233917,13832
VERACRUZ,Cazones de Herrera,20.703285,-97.31232056,2195
VERACRUZ,Cerro Azul,21.19146667,-97.74231861,9308
VERACRUZ,Citlaltépetl,21.32846806,-97.879275,2324
VERACRUZ,Coacoatzintla,19.65310611,-96.94514083,3678
VERACRUZ,Coatepec,19.45466056,-96.96027417,29204
VERACRUZ,Coatzintla,20.48236333,-97.46078194,16575
VERACRUZ,Colipa,19.92399972,-96.72673,1090
VERACRUZ,Cosamaloapan de Carpio,18.36477389,-95.79635861,15260
VERACRUZ,Cosautlán de Carvajal,19.33264361,-96.99136444,2517
VERACRUZ,Coscomatepec,19.07289833,-97.04642056,8366
VERACRUZ,Cosoleacaque,17.998595,-94.63569417,11483
VERACRUZ,Coxquihui,20.18473722,-97.58627056,2085
VERACRUZ,Coyutla,20.24712167,-97.65769722,4277
VERACRUZ,Cuichapa,18.77351,-96.86922389,1423
VERACRUZ,Cuitláhuac,18.81453944,-96.72232278,7014
VERACRUZ,Chacaltianguis,18.30533639,-95.84139028,1705
VERACRUZ,Chalma,21.20839111,-98.39760306,1106
VERACRUZ,Chiconquiaco,19.74209611,-96.81880833,1659
VERACRUZ,Chicontepec,20.971975,-98.17834417,2486
VERACRUZ,Chinameca,18.01777778,-94.68305556,5929
VERACRUZ,Chinampa de Gorostiza,21.35959944,-97.73533806,2641
VERACRUZ,Las Choapas,17.90932583,-94.09027611,20784
VERACRUZ,Chocamán,19.01087111,-97.0332375,6072
VERACRUZ,Chontla,21.29343472,-97.92492972,1170
VERACRUZ,Espinal,20.25942833,-97.39851444,1461
VERACRUZ,Filomeno Mata,20.20024639,-97.70373861,5018
VERACRUZ,Fortín,18.90366306,-96.99934556,10565
VERACRUZ,Gutiérrez Zamora,20.45193222,-97.08756583,7062
VERACRUZ,Hidalgotitlán,17.77101667,-94.64651639,1944
VERACRUZ,Huatusco,19.14697139,-96.96734972,18298
VERACRUZ,Huayacocotla,20.53727722,-98.47915194,2954
VERACRUZ,Hueyapan de Ocampo,18.15185806,-95.14268444,1855
VERACRUZ,Huiloapan de Cuauhtémoc,18.81657722,-97.15591972,1918
VERACRUZ,Ignacio de la Llave,18.72430556,-95.98563528,2269
VERACRUZ,Isla,18.02751389,-95.52762806,13237
VERACRUZ,Ixcatepec,21.23763444,-98.00595194,1908
VERACRUZ,Ixhuacán de los Reyes,19.35594583,-97.11527972,1315
VERACRUZ,Ixhuatlán del Café,19.05115667,-96.984325,3525
VERACRUZ,Ixhuatlancillo,18.89792361,-97.14893472,2970
VERACRUZ,Ixhuatlán del Sureste,18.02275361,-94.3937275,4338
VERACRUZ,Ixtaczoquitlán,18.85106639,-97.06306722,13983
VERACRUZ,Jalacingo,19.80596611,-97.30868167,7486
VERACRUZ,Jalcomulco,19.33168556,-96.7618225,1617
VERACRUZ,Jáltipan,17.96606806,-94.72173472,15694
VERACRUZ,Jamapa,19.04202639,-96.24059083,2341
VERACRUZ,Jesús Carranza,17.43492694,-95.0262525,2537
VERACRUZ,Xico,19.42126944,-97.00723278,10637
VERACRUZ,Jilotepec,19.61130389,-96.95027972,1999
VERACRUZ,Juan Rodríguez Clara,17.99400361,-95.40135389,7271
VERACRUZ,Juchique de Ferrer,19.84116111,-96.69473028,1302
VERACRUZ,Lerdo de Tejada,18.62819972,-95.52322194,8052
VERACRUZ,Maltrata,18.81040083,-97.27830389,5957
VERACRUZ,Manlio Fabio Altamirano,19.09443417,-96.33323028,2963
VERACRUZ,Mariano Escobedo,18.91288556,-97.13002417,1490
VERACRUZ,Mecatlán,20.21065556,-97.68174,1428
VERACRUZ,Mecayapan,18.22145722,-94.83764306,2349
VERACRUZ,Medellín de Bravo,19.05924056,-96.15817194,1476
VERACRUZ,Miahuatlán,19.70745944,-96.86985556,1279
VERACRUZ,Misantla,19.92863444,-96.85273611,14841
VERACRUZ,Moloacán,17.98877194,-94.34708194,1113
VERACRUZ,Naolinco,19.6552675,-96.87367556,5072
VERACRUZ,Nautla,20.20919167,-96.77414722,1579
VERACRUZ,Nogales,18.82253722,-97.16255639,9779
VERACRUZ,Oluta,17.92818528,-94.89694389,6691
VERACRUZ,Omealca,18.74730528,-96.78620306,1723
VERACRUZ,Otatitlán,18.1767125,-96.03457444,2440
VERACRUZ,Oteapan,17.99950333,-94.66658944,4966
VERACRUZ,Ozuluama de Mascareñas,21.66126056,-97.85050639,2287
VERACRUZ,Pajapan,18.26174361,-94.69178472,4857
VERACRUZ,Pánuco,22.0536125,-98.18130528,19508
VERACRUZ,Papantla,20.4467325,-97.32274917,28577
VERACRUZ,Paso del Macho,18.972155,-96.72451111,6866
VERACRUZ,Paso de Ovejas,19.28504694,-96.43845278,3183
VERACRUZ,La Perla,18.92761917,-97.13402361,1802
VERACRUZ,Perote,19.56065333,-97.24407194,19696
VERACRUZ,Platón Sánchez,21.27319778,-98.37414528,5071
VERACRUZ,Playa Vicente,17.83213278,-95.81205667,4427
VERACRUZ,Las Vigas de Ramírez,19.63847972,-97.10337778,4240
VERACRUZ,Pueblo Viejo,22.18363278,-97.83667611,4620
VERACRUZ,Rafael Delgado,18.81052167,-97.0734375,4910
VERACRUZ,Rafael Lucio,19.59310556,-96.98955833,2344
VERACRUZ,Río Blanco,18.838865,-97.139525,19541
VERACRUZ,Saltabarranca,18.59024028,-95.53187889,1392
VERACRUZ,San Juan Evangelista,17.88605222,-95.14008,1858
VERACRUZ,Santiago Tuxtla,18.46564278,-95.30175361,7377
VERACRUZ,Sayula de Alemán,17.88096944,-94.96010889,7280
VERACRUZ,Soconusco,17.96288056,-94.88105083,3193
VERACRUZ,Soledad de Doblado,19.04474583,-96.42328917,6739
VERACRUZ,Soteapan,18.22951,-94.87275639,2326
VERACRUZ,Tamalín,21.33793861,-97.81323,2844
VERACRUZ,Tamiahua,21.27974194,-97.44652472,2383
VERACRUZ,Tantoyuca,21.35181417,-98.22991944,16477
VERACRUZ,Castillo de Teayo,20.74973306,-97.63274944,2125
VERACRUZ,Tecolutla,20.4773925,-97.00845083,3078
VERACRUZ,Álamo Temapache,20.9171425,-97.67553139,13212
VERACRUZ,Tempoal,21.52228056,-98.38812528,5856
VERACRUZ,Tenampa,19.248555,-96.88485361,1021
VERACRUZ,Teocelo,19.38625056,-96.97217694,5871
VERACRUZ,Tepetzintla,21.16611333,-97.8510575,2686
VERACRUZ,Tequila,18.72980528,-97.06942472,1776
VERACRUZ,José Azueta,18.075635,-95.707965,3047
VERACRUZ,Texistepec,17.89420722,-94.81520889,4053
VERACRUZ,Tezonapa,18.60680694,-96.68753361,2748
VERACRUZ,Tierra Blanca,18.44744889,-96.36031472,23187
VERACRUZ,Tihuatlán,20.71667222,-97.537945,7361
VERACRUZ,Tlacojalpan,18.23088556,-95.9476275,1823
VERACRUZ,Tlacotalpan,18.61327167,-95.65631111,3999
VERACRUZ,Tlacotepec de Mejía,19.19213417,-96.8365075,1164
VERACRUZ,Tlalixcoyan,18.80216139,-96.06088806,1758
VERACRUZ,Tlapacoyan,19.96265222,-97.21252972,17448
VERACRUZ,Tlilapan,18.80574556,-97.09905833,1741
VERACRUZ,Tomatlán,19.03153944,-97.01026056,2155
VERACRUZ,Totutla,19.21128583,-96.96129472,1930
VERACRUZ,Ursulo Galván,19.40644611,-96.35996028,2631
VERACRUZ,Vega de Alatorre,20.02746583,-96.649765,3639
VERACRUZ,Villa Aldama,19.64888639,-97.223025,1621
VERACRUZ,Yanga,18.83383611,-96.79849806,2822
VERACRUZ,Yecuatla,19.86618639,-96.77622667,1503
VERACRUZ,Zaragoza,17.9557475,-94.64241361,4513
VERACRUZ,Zongolica,18.66689083,-96.99836444,3898
VERACRUZ,Zozocolco de Hidalgo,20.14084528,-97.57551333,1325
VERACRUZ,Agua Dulce,18.13827222,-94.14723889,15150
VERACRUZ,El Higo,21.76873417,-98.45372417,3762
VERACRUZ,Nanchital de Lázaro Cárdenas del Río,18.07214139,-94.41117583,12082
VERACRUZ,Tres Valles,18.24092194,-96.13479694,7728
VERACRUZ,Carlos A. Carrillo,18.37173444,-95.74475972,7388
VERACRUZ,Tatahuicapan de Juárez,18.24644722,-94.76023917,4115
VERACRUZ,Uxpanapa,17.27602361,-94.45133278,1885
VERACRUZ,San Rafael,20.18802528,-96.87095417,3651
VERACRUZ,Santiago Sochiapan,17.66373194,-95.73460194,1022
YUCATÁN,Acanceh,20.81242167,-89.45354667,5976
YUCATÁN,Akil,20.26705278,-89.34682556,6089
YUCATÁN,Baca,21.10954833,-89.39938222,2465
YUCATÁN,Buctzotz,21.20189667,-88.79446222,3692
YUCATÁN,Cacalchén,20.98309861,-89.22818,3357
YUCATÁN,Cansahcab,21.15810278,-89.10234139,1794
YUCATÁN,Celestún,20.86009167,-90.39946361,2994
YUCATÁN,Cenotillo,20.96577167,-88.60442,1226
YUCATÁN,Conkal,21.07389389,-89.52128389,7152
YUCATÁN,Cuzamá,20.74148417,-89.31696111,2038
YUCATÁN,Chemax,20.65501639,-87.93732806,7784
YUCATÁN,Chicxulub Pueblo,21.13728944,-89.51507611,1942
YUCATÁN,Chichimilá,20.63127,-88.21739667,2567
YUCATÁN,Chikindzonot,20.33365528,-88.48648556,1223
YUCATÁN,Chocholá,20.75023139,-89.83069861,2383
YUCATÁN,Chumayel,20.42953472,-89.30251917,1418
YUCATÁN,Dzán,20.38776417,-89.46887056,2485
YUCATÁN,Dzemul,21.21150306,-89.30881389,1469
YUCATÁN,Dzidzantún,21.24667833,-89.042975,3446
YUCATÁN,Dzilam González,21.280125,-88.92974056,2648
YUCATÁN,Dzitás,20.83986556,-88.52782222,1418
YUCATÁN,Espita,21.0110525,-88.3068225,6593
YUCATÁN,Halachó,20.47774583,-90.08222889,5045
YUCATÁN,Hocabá,20.81624,-89.24509917,2103
YUCATÁN,Hoctún,20.86521222,-89.20206583,2362
YUCATÁN,Homún,20.73951528,-89.28575444,3272
YUCATÁN,Huhí,20.72499056,-89.16219889,2601
YUCATÁN,Hunucmá,21.01615417,-89.87705167,14822
YUCATÁN,Ixil,21.15300028,-89.48121111,2000
YUCATÁN,Izamal,20.9329975,-89.01971472,8692
YUCATÁN,Kantunil,20.79644,-89.03651917,1778
YUCATÁN,Kaua,20.62008556,-88.41461667,1032
YUCATÁN,Kinchil,20.91646194,-89.94758278,3422
YUCATÁN,Kopomá,20.64897,-89.89952583,1004
YUCATÁN,Mama,20.47739806,-89.36557944,1317
YUCATÁN,Maní,20.38770139,-89.39297083,2311
YUCATÁN,Maxcanú,20.58505944,-90.00064028,6771
YUCATÁN,Mayapán,20.46874417,-89.21517111,1632
YUCATÁN,Motul,21.09555056,-89.28392472,13021
YUCATÁN,Muna,20.48395333,-89.7133775,6113
YUCATÁN,Muxupip,21.04282306,-89.32989111,1123
YUCATÁN,Opichén,20.55065139,-89.85624444,2740
YUCATÁN,Oxkutzcab,20.3019325,-89.41875167,12864
YUCATÁN,Panabá,21.29686111,-88.27118333,2360
YUCATÁN,Peto,20.12591833,-88.92398528,9641
YUCATÁN,Progreso,21.28257722,-89.663595,21516
YUCATÁN,Río Lagartos,21.59775056,-88.1579775,1196
YUCATÁN,Sacalum,20.49582917,-89.59116528,1687
YUCATÁN,Samahil,20.8834175,-89.88881556,1542
YUCATÁN,Santa Elena,20.3288975,-89.64325944,1568
YUCATÁN,Seyé,20.83698667,-89.37225278,4503
YUCATÁN,Sinanché,21.225595,-89.18578333,1053
YUCATÁN,Sotuta,20.59501778,-89.00670556,2635
YUCATÁN,Sucilá,21.15616556,-88.31393833,1696
YUCATÁN,Tahdziú,20.20382056,-88.94490361,1888
YUCATÁN,Tahmek,20.875535,-89.25579472,1569
YUCATÁN,Teabo,20.40041111,-89.28491917,3336
YUCATÁN,Tecoh,20.74172611,-89.47430222,5181
YUCATÁN,Tekal de Venegas,21.0140725,-88.94700528,1030
YUCATÁN,Tekantó,21.01164722,-89.10608389,1271
YUCATÁN,Tekax,20.20346472,-89.28838806,12883
YUCATÁN,Tekit,20.53349333,-89.33309472,5574
YUCATÁN,Telchac Pueblo,21.20334889,-89.27126722,1537
YUCATÁN,Temax,21.15184111,-88.93863417,2789
YUCATÁN,Temozón,20.80368028,-88.20115778,3576
YUCATÁN,Tetiz,20.96191167,-89.93344889,2185
YUCATÁN,Ticul,20.39834,-89.53444667,17496
YUCATÁN,Timucuy,20.81050806,-89.513505,2005
YUCATÁN,Tixcacalcupul,20.53708861,-88.27026694,1645
YUCATÁN,Tixkokob,21.0024825,-89.39505139,6095
YUCATÁN,Tixpéhual,20.97816833,-89.44190278,1880
YUCATÁN,Tizimín,21.14352306,-88.15226611,25356
YUCATÁN,Tunkás,20.90234972,-88.75227944,1259
YUCATÁN,Tzucacab,20.07193167,-89.05033028,5177
YUCATÁN,Uayma,20.7177875,-88.31713861,1457
YUCATÁN,Ucú,21.03173472,-89.74644028,1525
YUCATÁN,Valladolid,20.68972556,-88.20098,27688
YUCATÁN,Xocchel,20.83348889,-89.18371944,1310
YUCATÁN,Yaxcabá,20.54912556,-88.82720611,1576
YUCATÁN,Yaxkukul,21.06347889,-89.41923833,1423
ZACATECAS,Apozol,21.47087694,-103.09119,1057
ZACATECAS,Benito Juárez,21.50447778,-103.5559503,1042
ZACATECAS,Calera,22.94903722,-102.7022625,17210
ZACATECAS,Cañitas de Felipe Pescador,23.60697611,-102.72659,2617
ZACATECAS,Concepción del Oro,24.61316889,-101.4204839,2886
ZACATECAS,Cuauhtémoc,22.44921833,-102.3501019,3526
ZACATECAS,Chalchihuites,23.47735,-103.8840458,1399
ZACATECAS,General Enrique Estrada,22.99512333,-102.7400131,1870
ZACATECAS,General Francisco R. Murguía,23.99466806,-103.0198253,2186
ZACATECAS,General Pánfilo Natera,22.66437139,-102.1099233,1953
ZACATECAS,Jalpa,21.63223917,-102.9758342,6705
ZACATECAS,Jerez,22.64940333,-102.9899236,22323
ZACATECAS,Juan Aldama,24.29048111,-103.3935903,6752
ZACATECAS,Juchipila,21.41150389,-103.1192433,2578
ZACATECAS,Loreto,22.27218667,-101.9865639,11989
ZACATECAS,Luis Moya,22.43247778,-102.2492494,2746
ZACATECAS,Miguel Auza,24.29444639,-103.4514494,6403
ZACATECAS,Monte Escobedo,22.30278472,-103.5616431,1771
ZACATECAS,Morelos,22.86219444,-102.609535,3536
ZACATECAS,Nochistlán de Mejía,21.36325333,-102.847165,7593
ZACATECAS,Ojocaliente,22.57196667,-102.2529339,9551
ZACATECAS,Pinos,22.29884194,-101.5751672,2874
ZACATECAS,Río Grande,23.82743417,-103.0343317,17150
ZACATECAS,Sain Alto,23.57983028,-103.2474792,2231
ZACATECAS,Sombrerete,23.63137778,-103.6413422,11072
ZACATECAS,Tabasco,21.86527694,-102.9130569,3654
ZACATECAS,Tepechitlán,21.67112611,-103.3276253,1999
ZACATECAS,Teúl de González Ortega,21.46409139,-103.4620394,1503
ZACATECAS,Tlaltenango de Sánchez Román,21.78304167,-103.3058133,8694
ZACATECAS,Valparaíso,22.77190028,-103.5672333,5933
ZACATECAS,Villa de Cos,23.2938925,-102.3468883,2758
ZACATECAS,Villa García,22.16489806,-101.9563189,3070
ZACATECAS,Villa González Ortega,22.51299167,-101.9137606,2577
ZACATECAS,Villa Hidalgo,22.35708833,-101.7125989,1848
ZACATECAS,Villanueva,22.35425861,-102.8837261,6310
ZACATECAS,Trancoso,22.73538917,-102.3660378,6992
